[{"id":269591496,"lat":41.3533359,"lon":-8.4497292},{"id":475347093,"lat":41.1613174,"lon":-8.6297087,"name":"Casa da Música (Metro)"},{"id":492290151,"lat":41.1571968,"lon":-8.6671829,"name":"Segurança Social"},{"id":492301138,"lat":41.1572058,"lon":-8.6678924,"name":"Segurança Social"},{"id":606967983,"lat":41.1918071,"lon":-8.3857601},{"id":606968002,"lat":41.1923336,"lon":-8.3906607},{"id":606968024,"lat":41.192156,"lon":-8.39065},{"id":606968160,"lat":41.1895805,"lon":-8.3823459},{"id":606968202,"lat":41.189314,"lon":-8.3820776},{"id":606968371,"lat":41.1879657,"lon":-8.3786551},{"id":606968379,"lat":41.1879253,"lon":-8.3789019},{"id":609719937,"lat":41.1541295,"lon":-8.6477212,"name":"Lordelo"},{"id":612331564,"lat":41.1903913,"lon":-8.3956},{"id":612332321,"lat":41.1929616,"lon":-8.3872244},{"id":612332600,"lat":41.1930798,"lon":-8.3867165},{"id":612332876,"lat":41.1952797,"lon":-8.3842542},{"id":612333019,"lat":41.1952878,"lon":-8.3841228},{"id":612333670,"lat":41.1903105,"lon":-8.3957502},{"id":689545295,"lat":41.3396231,"lon":-8.4872139,"name":"Fontiscos 1"},{"id":689545346,"lat":41.3408962,"lon":-8.4881693,"name":"Fontiscos 2"},{"id":689545349,"lat":41.3390442,"lon":-8.486522,"name":"Biblioteca"},{"id":689545351,"lat":41.3388422,"lon":-8.4833265,"name":"Arco 3"},{"id":689545354,"lat":41.3416782,"lon":-8.4829835,"name":"Liceu"},{"id":689545355,"lat":41.3396462,"lon":-8.4810074,"name":"Arco 2"},{"id":689545357,"lat":41.3396917,"lon":-8.4813738,"name":"Arco 1"},{"id":689545368,"lat":41.3427654,"lon":-8.4812013,"name":"Hospital / Misericórdia 1"},{"id":689545371,"lat":41.3425922,"lon":-8.4809169,"name":"Hospital / Misericórdia 2"},{"id":689545373,"lat":41.343901,"lon":-8.4804113,"name":"Bento Correia 1"},{"id":689545375,"lat":41.3441226,"lon":-8.4801472,"name":"Bento Correia 2"},{"id":689545376,"lat":41.3469709,"lon":-8.4767972,"name":"Eb2/3 São Rosendo"},{"id":689545379,"lat":41.344199,"lon":-8.472479,"name":"Museu 1"},{"id":689545381,"lat":41.3439387,"lon":-8.4719687,"name":"Museu 2"},{"id":689545382,"lat":41.3457505,"lon":-8.4730236,"name":"Parque 1"},{"id":689545384,"lat":41.3458499,"lon":-8.4729962,"name":"Parque 2"},{"id":689591198,"lat":41.296581,"lon":-8.4709674},{"id":689591249,"lat":41.3010463,"lon":-8.4709369},{"id":689591258,"lat":41.3036712,"lon":-8.4709146,"name":"Santiago"},{"id":689591259,"lat":41.3041498,"lon":-8.4710429,"name":"Santiago"},{"id":689591261,"lat":41.3078826,"lon":-8.470855},{"id":689591262,"lat":41.3077253,"lon":-8.4709758},{"id":689591339,"lat":41.3081619,"lon":-8.461617,"name":"Parque Desportivo"},{"id":689591381,"lat":41.3050026,"lon":-8.4581195},{"id":689591406,"lat":41.312119,"lon":-8.4707357},{"id":689591410,"lat":41.3116841,"lon":-8.4711512},{"id":689591494,"lat":41.3149579,"lon":-8.4680846,"name":"Covipor"},{"id":987217411,"lat":41.1508202,"lon":-8.6021835},{"id":987217940,"lat":41.1529513,"lon":-8.6023612,"name":"Moreira"},{"id":1143318023,"lat":41.12217,"lon":-8.6061621,"name":"Moçambique"},{"id":1143318337,"lat":41.1271904,"lon":-8.611282},{"id":1180701113,"lat":41.1147516,"lon":-8.6049639,"name":"Clube Caçadores"},{"id":1180704066,"lat":41.114912,"lon":-8.6044935,"name":"Clube Caçadores"},{"id":1196267740,"lat":41.1139251,"lon":-8.6023863,"name":"Cravel"},{"id":1240414741,"lat":41.1964729,"lon":-8.4295069,"name":"Paragem da Regedoura"},{"id":1297803178,"lat":41.1924327,"lon":-8.514509},{"id":1298367922,"lat":41.2055329,"lon":-8.5116365},{"id":1298415723,"lat":41.1925567,"lon":-8.5150603},{"id":1298415724,"lat":41.2054941,"lon":-8.5454792},{"id":1298415725,"lat":41.2054124,"lon":-8.5915582},{"id":1298415726,"lat":41.2058341,"lon":-8.5425958},{"id":1298415727,"lat":41.2060198,"lon":-8.5300806},{"id":1298415728,"lat":41.205255,"lon":-8.5454577},{"id":1298415729,"lat":41.1947728,"lon":-8.5101438},{"id":1298415730,"lat":41.1945074,"lon":-8.5181327,"name":"Alto da Serra"},{"id":1298415731,"lat":41.202349,"lon":-8.5268915,"name":"Tapada Azevedo"},{"id":1298415732,"lat":41.2056841,"lon":-8.5424012},{"id":1298415736,"lat":41.205927,"lon":-8.5294342},{"id":1298415738,"lat":41.2068492,"lon":-8.5663575,"name":"Alto da Maia"},{"id":1298415739,"lat":41.1917534,"lon":-8.5102457,"name":"Fonte da Senhora"},{"id":1298828519,"lat":41.194724,"lon":-8.5182306,"name":"Alto da Serra"},{"id":1322615571,"lat":41.110984,"lon":-8.5984894,"name":"Escola Básica do 2º e 3º Ciclo Soares dos Reis"},{"id":1322628402,"lat":41.1090063,"lon":-8.5965598,"name":"Sardoal"},{"id":1322635763,"lat":41.1123703,"lon":-8.6002029,"name":"RTP"},{"id":1322638678,"lat":41.1057228,"lon":-8.5911899,"name":"Hospital Santos Silva"},{"id":1322682136,"lat":41.1079113,"lon":-8.5940112,"name":"Egas Moniz"},{"id":1390099336,"lat":41.1525067,"lon":-8.3974919},{"id":1390099690,"lat":41.1531018,"lon":-8.396633},{"id":1390610078,"lat":41.1340134,"lon":-8.374999},{"id":1403538446,"lat":41.1861827,"lon":-8.5967934,"name":"Feliciana"},{"id":1403538447,"lat":41.1833264,"lon":-8.6006009,"name":"Hospital São João"},{"id":1403538448,"lat":41.183724,"lon":-8.5968819,"name":"Ricardo Alves"},{"id":1487036205,"lat":41.1117649,"lon":-8.6002648,"name":"RTP"},{"id":1595289068,"lat":41.1817826,"lon":-8.6594531,"name":"Senhora da Hora (Hipermercado);Senhora da Hora (Continente)"},{"id":1595591496,"lat":41.1932075,"lon":-8.7003437,"name":"Escola Secundária da Boa Nova;Fonte Vila"},{"id":1638404016,"lat":41.1618175,"lon":-8.5343708,"name":"Sta. Ovaia"},{"id":1638404018,"lat":41.1610905,"lon":-8.5315222,"name":"Sta. Cruz"},{"id":1640406736,"lat":41.1627807,"lon":-8.5362134,"name":"Várzea"},{"id":1640406737,"lat":41.1639115,"lon":-8.5396037,"name":"Carvalha de Baixo"},{"id":1643107156,"lat":41.2055662,"lon":-8.5611383,"name":"Avenida Lidador da Maia"},{"id":1643107157,"lat":41.2056459,"lon":-8.5611738,"name":"Avenida Lidador da Maia"},{"id":1646001189,"lat":41.1704139,"lon":-8.6662299,"name":"Igreja de Aldoar"},{"id":1652968808,"lat":41.2064234,"lon":-8.5672582,"name":"Alto da Maia"},{"id":1652968809,"lat":41.2073128,"lon":-8.5671664,"name":"Alto da Maia"},{"id":1652968810,"lat":41.2066045,"lon":-8.5656429,"name":"Alto da Maia"},{"id":1666157464,"lat":41.135935,"lon":-8.6079881,"name":"Jardim do Morro"},{"id":1668865881,"lat":41.1917283,"lon":-8.3858788},{"id":1697872114,"lat":41.20455,"lon":-8.5693614,"name":"Pícua"},{"id":1697872122,"lat":41.204419,"lon":-8.5697539,"name":"Pícua"},{"id":1697872127,"lat":41.2044932,"lon":-8.5554801,"name":"Palmilheira"},{"id":1697872132,"lat":41.2047081,"lon":-8.5563599,"name":"Palmilheira"},{"id":1698026263,"lat":41.2024528,"lon":-8.5723961,"name":"Coriscos"},{"id":1698026266,"lat":41.1970836,"lon":-8.5760625},{"id":1725587987,"lat":41.161036,"lon":-8.6479471,"name":"Foco"},{"id":1725587989,"lat":41.1610969,"lon":-8.6479918,"name":"Foco"},{"id":1725587992,"lat":41.1618606,"lon":-8.6528536,"name":"Pinheiro Manso"},{"id":1725587996,"lat":41.1619272,"lon":-8.6529122,"name":"Pinheiro Manso"},{"id":1725588124,"lat":41.1626246,"lon":-8.6574505,"name":"Vodafone Serralves"},{"id":1725588146,"lat":41.1626864,"lon":-8.6574676,"name":"Vodafone Serralves"},{"id":1725588158,"lat":41.1630594,"lon":-8.660055,"name":"Paulo Novais"},{"id":1725588161,"lat":41.1631299,"lon":-8.6601051,"name":"Paulo Novais"},{"id":1725588411,"lat":41.1682218,"lon":-8.687901,"name":"Castelo do Queijo"},{"id":1728072412,"lat":41.1934768,"lon":-8.6088246},{"id":1784071566,"lat":41.1686503,"lon":-8.5517588,"name":"Outeirinho"},{"id":1784071568,"lat":41.168824,"lon":-8.5548165,"name":"Soutelo de Baixo"},{"id":1784071583,"lat":41.1652844,"lon":-8.5435271,"name":"Dr. Américo Costa"},{"id":1784071585,"lat":41.1662516,"lon":-8.5463086,"name":"Alto de Soutelo"},{"id":1784071602,"lat":41.1645971,"lon":-8.5415147,"name":"Carvalha"},{"id":1784071605,"lat":41.1673137,"lon":-8.5488541,"name":"Infante Santo"},{"id":1784085852,"lat":41.1678003,"lon":-8.56278,"name":"Meiral"},{"id":1784085854,"lat":41.1620617,"lon":-8.5752872,"name":"Cartes"},{"id":1784085856,"lat":41.1662072,"lon":-8.5707971,"name":"S. Roque G. Barros"},{"id":1784085861,"lat":41.1607531,"lon":-8.5777092,"name":"Chaves Oliveira"},{"id":1784085870,"lat":41.1686523,"lon":-8.559159,"name":"S. Caetano"},{"id":1784085889,"lat":41.1676509,"lon":-8.5689893,"name":"S. Roque (Circunvalação)"},{"id":1784085893,"lat":41.1634752,"lon":-8.5722589,"name":"Ilhéu"},{"id":1784096953,"lat":41.1521037,"lon":-8.5922924,"name":"Eirinhas"},{"id":1784096954,"lat":41.15069,"lon":-8.594524,"name":"Bonfim"},{"id":1784096955,"lat":41.1585318,"lon":-8.5838944,"name":"Estádio do Dragão"},{"id":1784096956,"lat":41.1570395,"lon":-8.5898462,"name":"Centro S. Campanhã"},{"id":1784096957,"lat":41.1575827,"lon":-8.5868287,"name":"Fonte Velha"},{"id":1784096959,"lat":41.155737,"lon":-8.5916219,"name":"Praça das Flores"},{"id":1784106747,"lat":41.1491241,"lon":-8.6068344,"name":"Bolhão (Mercado)"},{"id":1784106748,"lat":41.1489467,"lon":-8.6016619,"name":"Dom João IV"},{"id":1784106750,"lat":41.1481512,"lon":-8.6058241,"name":"Santa Catarina"},{"id":1784106762,"lat":41.1496549,"lon":-8.604998,"name":"Bolhão (metro)"},{"id":1784107716,"lat":41.1486097,"lon":-8.5977909,"name":"Campo 24 de Agosto"},{"id":1784107717,"lat":41.1488639,"lon":-8.5976601,"name":"Campo 24 de Agosto"},{"id":1838443964,"lat":41.1805944,"lon":-8.5825553,"name":"Areosa"},{"id":1848119446,"lat":41.0429762,"lon":-8.6282687},{"id":1920072255,"lat":41.1827694,"lon":-8.5826546,"name":"Areosa (Mercado)"},{"id":1980949583,"lat":41.1593826,"lon":-8.5807293,"name":"Corujeira"},{"id":2046423475,"lat":41.1536151,"lon":-8.6067018,"name":"Jornal de Notícias"},{"id":2046423481,"lat":41.1519348,"lon":-8.607139,"name":"Bolhão"},{"id":2065732272,"lat":41.1440911,"lon":-8.3858794},{"id":2065732542,"lat":41.144884,"lon":-8.3686254},{"id":2065732717,"lat":41.1451514,"lon":-8.3727777},{"id":2065733648,"lat":41.146952,"lon":-8.3910671},{"id":2065735362,"lat":41.1513781,"lon":-8.405922},{"id":2065735906,"lat":41.1525245,"lon":-8.4087689},{"id":2065736861,"lat":41.1542576,"lon":-8.4117733},{"id":2065737939,"lat":41.1563351,"lon":-8.4179604},{"id":2065739948,"lat":41.1698923,"lon":-8.3811711},{"id":2070094583,"lat":41.167277,"lon":-8.688832,"name":"Castelo do Queijo"},{"id":2070095053,"lat":41.1673981,"lon":-8.6891244,"name":"Castelo do Queijo"},{"id":2070095268,"lat":41.1677596,"lon":-8.6894274,"name":"Castelo do Queijo"},{"id":2070398181,"lat":41.1266354,"lon":-8.6103616,"name":"Lgo. dos Aviadores"},{"id":2070417524,"lat":41.1262213,"lon":-8.6054172,"name":"João de Deus"},{"id":2075056571,"lat":41.1731101,"lon":-8.6881272,"name":"Praça da Cidade do Salvador"},{"id":2075056572,"lat":41.1738307,"lon":-8.6885552,"name":"Praça da Cidade do Salvador"},{"id":2075056614,"lat":41.1738289,"lon":-8.6889507,"name":"Pr. Cidade Salvador"},{"id":2075056805,"lat":41.1732797,"lon":-8.6893181,"name":"Pr. Cidade Salvador"},{"id":2075067792,"lat":41.1583509,"lon":-8.6642449,"name":"João Barros"},{"id":2075069627,"lat":41.1609511,"lon":-8.657793,"name":"Serralves"},{"id":2075070425,"lat":41.1606219,"lon":-8.6591944,"name":"Serralves"},{"id":2075070977,"lat":41.1618739,"lon":-8.6560053,"name":"Gomes da Costa 1"},{"id":2085543907,"lat":41.1831638,"lon":-8.6017236},{"id":2085550375,"lat":41.1814906,"lon":-8.5975903,"name":"Escola Superior Educação"},{"id":2094745998,"lat":41.1597376,"lon":-8.6285394,"name":"Boavista Casa da Música"},{"id":2094749184,"lat":41.1613656,"lon":-8.6299542,"name":"Casa da Música - Marlines"},{"id":2094758414,"lat":41.2093239,"lon":-8.6895315,"name":"Mar Shopping"},{"id":2096413820,"lat":41.1504884,"lon":-8.661469,"name":"Pasteleira"},{"id":2096423069,"lat":41.1521386,"lon":-8.6551963,"name":"Fluvial (Norte)"},{"id":2096424907,"lat":41.1521083,"lon":-8.6542065,"name":"Fluvial Norte"},{"id":2096429062,"lat":41.1523183,"lon":-8.6521171,"name":"Palmeiras"},{"id":2096429356,"lat":41.1526213,"lon":-8.6513258,"name":"Palmeiras"},{"id":2096431537,"lat":41.1543581,"lon":-8.6490218,"name":"Lordelo"},{"id":2096432053,"lat":41.154528,"lon":-8.6442059,"name":"Jardim Botânico"},{"id":2096462456,"lat":41.1451827,"lon":-8.6160227,"name":"Cordoaria"},{"id":2096462952,"lat":41.1451002,"lon":-8.6161874,"name":"Cordoaria"},{"id":2096469166,"lat":41.1449919,"lon":-8.6164088,"name":"Cordoaria"},{"id":2096470443,"lat":41.1449063,"lon":-8.6165951,"name":"Cordoaria"},{"id":2096485847,"lat":41.1459201,"lon":-8.6124804,"name":"Lóios"},{"id":2100571349,"lat":41.1480515,"lon":-8.6082033,"name":"Praça Dom João I"},{"id":2100577096,"lat":41.1514364,"lon":-8.6063681,"name":"Bolhão (Firmeza)"},{"id":2100595277,"lat":41.1494339,"lon":-8.6076112,"name":"Mercado do Bolhão"},{"id":2100595285,"lat":41.1475639,"lon":-8.6091879,"name":"Praça Dom João I"},{"id":2100595287,"lat":41.1472199,"lon":-8.6169406,"name":"Carmo"},{"id":2100595289,"lat":41.1494915,"lon":-8.6255271,"name":"Palácio"},{"id":2102521099,"lat":41.1576195,"lon":-8.6603261,"name":"Museu Serralves"},{"id":2102521100,"lat":41.1528575,"lon":-8.6621594,"name":"Campo Pasteleira"},{"id":2102521101,"lat":41.1549205,"lon":-8.6582299,"name":"Bairro da Pasteleira"},{"id":2102521103,"lat":41.1568875,"lon":-8.6613694,"name":"Museu Serralves"},{"id":2102534734,"lat":41.1505338,"lon":-8.6510672,"name":"Santa Catarina"},{"id":2102534735,"lat":41.1488727,"lon":-8.6529111,"name":"Fluvial"},{"id":2102537929,"lat":41.1454947,"lon":-8.6027109,"name":"São Lázaro"},{"id":2102537930,"lat":41.1431419,"lon":-8.6089548,"name":"Largo 1º Dezembro"},{"id":2102561880,"lat":41.145835,"lon":-8.5987881,"name":"Duque Terceira"},{"id":2102561892,"lat":41.145937,"lon":-8.5966746,"name":"Prado Repouso"},{"id":2102561900,"lat":41.1470465,"lon":-8.5893791,"name":"Capela Senhora da Saúde"},{"id":2102561903,"lat":41.1465167,"lon":-8.5922959,"name":"Heroísmo"},{"id":2102561906,"lat":41.1497162,"lon":-8.5859854,"name":"Campanhã"},{"id":2102655365,"lat":41.1464793,"lon":-8.5930737,"name":"Heroísmo"},{"id":2102655368,"lat":41.1460211,"lon":-8.5968152,"name":"Prado Repouso"},{"id":2102655371,"lat":41.145828,"lon":-8.6008655,"name":"São Lázaro"},{"id":2102669237,"lat":41.1443437,"lon":-8.6056396,"name":"Alexandre Herculano"},{"id":2102674746,"lat":41.1451226,"lon":-8.6071133,"name":"Batalha"},{"id":2102696648,"lat":41.1506483,"lon":-8.6511031,"name":"Santa Catarina"},{"id":2102701426,"lat":41.1489404,"lon":-8.6535803,"name":"Fluvial"},{"id":2102719561,"lat":41.14818,"lon":-8.6571463,"name":"Paulo da Gama"},{"id":2102719564,"lat":41.1486819,"lon":-8.659976,"name":"Pousada Juventude"},{"id":2102719565,"lat":41.1526859,"lon":-8.6621379,"name":"Campo Pasteleira"},{"id":2102719566,"lat":41.1531918,"lon":-8.6594181,"name":"Igreja Nossa Senhora da Ajuda"},{"id":2102722769,"lat":41.1550568,"lon":-8.6582098,"name":"Bairro Pasteleira"},{"id":2102729172,"lat":41.1586565,"lon":-8.6641871,"name":"João Barros"},{"id":2102729173,"lat":41.1587464,"lon":-8.662095,"name":"Afonso Albuquerque"},{"id":2103220692,"lat":41.1629745,"lon":-8.6275323,"name":"Graciosa"},{"id":2103227641,"lat":41.1661669,"lon":-8.6265962,"name":"Carvalhido"},{"id":2103230125,"lat":41.1672673,"lon":-8.6239449,"name":"Natária"},{"id":2103239982,"lat":41.1674753,"lon":-8.6208053,"name":"Bica Velha"},{"id":2103243084,"lat":41.1674985,"lon":-8.6172769,"name":"Silva Porto"},{"id":2103245000,"lat":41.1663597,"lon":-8.6125723,"name":"Vale Formoso"},{"id":2103249074,"lat":41.1644899,"lon":-8.6105633,"name":"António Cândido"},{"id":2103256158,"lat":41.164325,"lon":-8.6067232,"name":"Faria Guimarães"},{"id":2103256159,"lat":41.1653602,"lon":-8.6059002,"name":"Covelo"},{"id":2103256560,"lat":41.1653885,"lon":-8.6038363,"name":"Bento Júnior"},{"id":2103258930,"lat":41.1665849,"lon":-8.6016731,"name":"Álvaro Castelões"},{"id":2103267747,"lat":41.1683496,"lon":-8.6034353,"name":"Aval de Cima"},{"id":2103267750,"lat":41.1698346,"lon":-8.6024778,"name":"Augusto Lessa"},{"id":2103268177,"lat":41.1696893,"lon":-8.5989976,"name":"Salgueiros"},{"id":2103272928,"lat":41.1732538,"lon":-8.5988273,"name":"Manuel Laranjeira"},{"id":2103272929,"lat":41.1757977,"lon":-8.6001161,"name":"Faculdade de Economia"},{"id":2103272930,"lat":41.179192,"lon":-8.5985274,"name":"Faculdade de Engenharia"},{"id":2103272931,"lat":41.1707594,"lon":-8.5974701,"name":"Outeiro"},{"id":2103279279,"lat":41.1808275,"lon":-8.5977504,"name":"Escola Superior Educação"},{"id":2104498410,"lat":41.1712575,"lon":-8.5978146,"name":"Outeiro"},{"id":2104498411,"lat":41.1654899,"lon":-8.6044034,"name":"Bento Júnior"},{"id":2104498412,"lat":41.1732715,"lon":-8.5989679,"name":"Manuel Laranjeira"},{"id":2104498413,"lat":41.1682269,"lon":-8.6035156,"name":"Aval de Cima"},{"id":2104498414,"lat":41.1658211,"lon":-8.6063265},{"id":2104498415,"lat":41.1754236,"lon":-8.6002218,"name":"Faculdade de Economia"},{"id":2104498416,"lat":41.1665672,"lon":-8.6073806,"name":"Covelo"},{"id":2104498417,"lat":41.1699401,"lon":-8.6024829,"name":"Augusto Lessa"},{"id":2104498418,"lat":41.1675981,"lon":-8.6170789,"name":"Silva Porto"},{"id":2104498419,"lat":41.1665318,"lon":-8.6126619,"name":"Vale Formoso"},{"id":2104498420,"lat":41.1697947,"lon":-8.5993273,"name":"Salgueiros"},{"id":2104498421,"lat":41.1791526,"lon":-8.5987142,"name":"Faculdade de Engenharia"},{"id":2104498422,"lat":41.1675939,"lon":-8.6104223,"name":"Campo Lindo"},{"id":2104501616,"lat":41.1676545,"lon":-8.6195686,"name":"Bica Velha"},{"id":2104506711,"lat":41.1669823,"lon":-8.6260513,"name":"Carvalhido"},{"id":2104506720,"lat":41.167282,"lon":-8.6243349,"name":"Natária"},{"id":2104522952,"lat":41.1623954,"lon":-8.6329139,"name":"Moreira de Sá"},{"id":2104522956,"lat":41.1650225,"lon":-8.6310109,"name":"Casa de Saúde da Boavista"},{"id":2104529571,"lat":41.1610001,"lon":-8.6297664,"name":"Casa da Música (Metro)"},{"id":2104529572,"lat":41.1611394,"lon":-8.6299019,"name":"Casa da Música (Metro)"},{"id":2104529573,"lat":41.1612656,"lon":-8.6300185,"name":"Casa da Música"},{"id":2104535590,"lat":41.1593937,"lon":-8.6288786,"name":"Boavista Casa da Música"},{"id":2104535594,"lat":41.1589354,"lon":-8.6294712,"name":"Boavista - Casa da Música"},{"id":2104543052,"lat":41.1551579,"lon":-8.6285151,"name":"Bom Sucesso"},{"id":2104545158,"lat":41.1552851,"lon":-8.6282335,"name":"Bom Sucesso"},{"id":2104582870,"lat":41.1829014,"lon":-8.6007124,"name":"Hospital São João (Urgência)"},{"id":2104582872,"lat":41.1826773,"lon":-8.5993508,"name":"Hospital São João (Resende)"},{"id":2109293009,"lat":41.1260252,"lon":-8.6072343,"name":"Pádua Correia"},{"id":2111145764,"lat":41.1588083,"lon":-8.6623149,"name":"Afonso Albuquerque"},{"id":2111158373,"lat":41.1606015,"lon":-8.6449529,"name":"Bessa"},{"id":2111158376,"lat":41.1605045,"lon":-8.64491,"name":"Bessa"},{"id":2111165211,"lat":41.1596524,"lon":-8.6400525,"name":"António Cardoso"},{"id":2111173617,"lat":41.1584205,"lon":-8.6326925,"name":"Agramonte"},{"id":2111182750,"lat":41.1571129,"lon":-8.6299118,"name":"Boavista(Cemitério)"},{"id":2111191676,"lat":41.1587963,"lon":-8.6337653,"name":"Agramonte"},{"id":2111197365,"lat":41.1592022,"lon":-8.6362947,"name":"Guerra Junqueiro"},{"id":2111201749,"lat":41.1598323,"lon":-8.6399827,"name":"António Cardoso"},{"id":2111201750,"lat":41.1603482,"lon":-8.6430176,"name":"Bessa"},{"id":2111204443,"lat":41.1611043,"lon":-8.6474862,"name":"Foco"},{"id":2111209349,"lat":41.1637891,"lon":-8.6634762,"name":"Fonte da Moura"},{"id":2111213114,"lat":41.164307,"lon":-8.6680373,"name":"Liceu Garcia da Orta"},{"id":2111213115,"lat":41.16451,"lon":-8.6678052,"name":"Liceu Garcia da Orta"},{"id":2111213116,"lat":41.1635892,"lon":-8.6637605,"name":"Fonte da Moura"},{"id":2111217238,"lat":41.1650834,"lon":-8.671213,"name":"Parque da Cidade"},{"id":2111219545,"lat":41.1662554,"lon":-8.6781197,"name":"Nevogilde"},{"id":2111222203,"lat":41.1673197,"lon":-8.6844577,"name":"Malaca"},{"id":2111222204,"lat":41.1670925,"lon":-8.68451,"name":"Malaca"},{"id":2111953800,"lat":41.176219,"lon":-8.6890332,"name":"Sousa Aroso"},{"id":2111960933,"lat":41.1817742,"lon":-8.6921525,"name":"Godinho"},{"id":2111965180,"lat":41.1834942,"lon":-8.6938128,"name":"Lota (Intermaché)"},{"id":2111966887,"lat":41.185431,"lon":-8.6956621,"name":"São Pedro"},{"id":2111970652,"lat":41.1874345,"lon":-8.6936639,"name":"Matosinhos (Mercado)"},{"id":2112398831,"lat":41.1479159,"lon":-8.6504178,"name":"Cordoaria Velha"},{"id":2112398832,"lat":41.1480051,"lon":-8.6504617,"name":"Cordoaria Velha"},{"id":2112398837,"lat":41.148238,"lon":-8.6481701,"name":"Gás"},{"id":2112398839,"lat":41.1483653,"lon":-8.6538711,"name":"Fluvial"},{"id":2112825816,"lat":41.1414536,"lon":-8.6185251,"name":"Miragaia"},{"id":2112859626,"lat":41.2046299,"lon":-8.6886674,"name":"Leça Futebol Clube"},{"id":2116642260,"lat":41.1482314,"lon":-8.6107572,"name":"Avenida dos Aliados"},{"id":2116645552,"lat":41.1489623,"lon":-8.611268,"name":"Avenida dos Aliados"},{"id":2116647099,"lat":41.1485463,"lon":-8.611282,"name":"Avenida dos Aliados"},{"id":2116680415,"lat":41.1524121,"lon":-8.6058176,"name":"Gonçalo Cristóvão"},{"id":2116683638,"lat":41.1533939,"lon":-8.6077719,"name":"Jornal de Notícias"},{"id":2116688494,"lat":41.1544103,"lon":-8.61012,"name":"Gonçalo Cristóvão"},{"id":2116737297,"lat":41.2460868,"lon":-8.6486067,"name":"Padrão de Moreira (Repsol)"},{"id":2116754885,"lat":41.2836408,"lon":-8.6795003,"name":"Vilar (Dgauto)"},{"id":2116782345,"lat":41.328629,"lon":-8.717786,"name":"Varziela (Marjos)"},{"id":2116782346,"lat":41.354238,"lon":-8.7411802,"name":"Mercado de Vila do Conde"},{"id":2116782348,"lat":41.315729,"lon":-8.7093102,"name":"Mindelo"},{"id":2116814217,"lat":41.2945369,"lon":-8.6910545,"name":"Modivas"},{"id":2119884746,"lat":41.1799826,"lon":-8.6570795,"name":"Continente"},{"id":2119884755,"lat":41.1807947,"lon":-8.6585443,"name":"Senhora da Hora (Hipermercado);Senhora da Hora (Continente)"},{"id":2119884758,"lat":41.1694015,"lon":-8.64463,"name":"Francos Zona Industrial"},{"id":2119884764,"lat":41.1808124,"lon":-8.6635892,"name":"Hospital Pedro Hispano"},{"id":2119884766,"lat":41.1832327,"lon":-8.6612503,"name":"Continente"},{"id":2119884768,"lat":41.1768989,"lon":-8.6537052,"name":"Rotunda AEP"},{"id":2119884770,"lat":41.1796262,"lon":-8.6733497,"name":"Parque de Real"},{"id":2121580142,"lat":41.1618708,"lon":-8.6716692,"name":"Rua do Castro"},{"id":2121580143,"lat":41.1619536,"lon":-8.6716209,"name":"Rua do Castro"},{"id":2121583912,"lat":41.1598414,"lon":-8.6662123,"name":"Cristo Rei"},{"id":2121587167,"lat":41.159806,"lon":-8.6663491,"name":"Cristo Rei"},{"id":2121592136,"lat":41.1615275,"lon":-8.6667393,"name":"Liceu Garcia de Orta"},{"id":2121594297,"lat":41.1614629,"lon":-8.6663544,"name":"Liceu Garcia de Orta"},{"id":2121604360,"lat":41.1621412,"lon":-8.6639347,"name":"Avenida da Boavista"},{"id":2121613691,"lat":41.1628207,"lon":-8.6633809,"name":"Avenida da Boavista"},{"id":2121631772,"lat":41.1567315,"lon":-8.666164,"name":"Alfredo Keil"},{"id":2121631773,"lat":41.1567658,"lon":-8.6658891,"name":"Alfredo Keil"},{"id":2122817419,"lat":41.1485234,"lon":-8.6106581,"name":"Avenida dos Aliados"},{"id":2122822991,"lat":41.1488041,"lon":-8.61056,"name":"Avenida dos Aliados"},{"id":2122826692,"lat":41.1517784,"lon":-8.6096322,"name":"Trindade"},{"id":2122826693,"lat":41.1516711,"lon":-8.6095206,"name":"Trindade"},{"id":2122830110,"lat":41.1511965,"lon":-8.6095763,"name":"Trindade"},{"id":2122830966,"lat":41.15105,"lon":-8.609711,"name":"Trindade"},{"id":2122860925,"lat":41.1522153,"lon":-8.6101509,"name":"Trindade"},{"id":2122875964,"lat":41.1444639,"lon":-8.6060125,"name":"Alexandre Herculano (UTC)"},{"id":2122881223,"lat":41.1454901,"lon":-8.6036817,"name":"Duque Loulé"},{"id":2122904436,"lat":41.1484517,"lon":-8.5860124,"name":"Campanhã"},{"id":2122906080,"lat":41.1494388,"lon":-8.5860548,"name":"Campanhã"},{"id":2122914607,"lat":41.1483795,"lon":-8.5862409,"name":"Campanhã"},{"id":2123017367,"lat":41.1482737,"lon":-8.612832,"name":"Praça Filipa de Lencastre"},{"id":2123020218,"lat":41.1476408,"lon":-8.6147066,"name":"Guilherme Gomes Fernandes"},{"id":2123038696,"lat":41.1534029,"lon":-8.6263381,"name":"Praça da Galiza"},{"id":2123038697,"lat":41.1563554,"lon":-8.6279447,"name":"Boavista Bom Sucesso"},{"id":2123039585,"lat":41.1556656,"lon":-8.6283665,"name":"Boavista Bom Sucesso"},{"id":2126477798,"lat":41.1557206,"lon":-8.6598775,"name":"João Rodrigues Cabrilho"},{"id":2126480608,"lat":41.1573119,"lon":-8.6612535,"name":"Museu Serralves"},{"id":2126482700,"lat":41.1552359,"lon":-8.6607935,"name":"João Rodrigues Cabrilho"},{"id":2126487065,"lat":41.1551713,"lon":-8.6632906,"name":"Pinhais da Foz"},{"id":2126487068,"lat":41.1552369,"lon":-8.6630492,"name":"Pinhais da Foz"},{"id":2126670534,"lat":41.1645209,"lon":-8.6621538,"name":"Fonte da Moura"},{"id":2126670542,"lat":41.1724974,"lon":-8.6556374,"name":"Pereiró"},{"id":2126670547,"lat":41.1703239,"lon":-8.6574747,"name":"Lidador"},{"id":2127663864,"lat":41.1641842,"lon":-8.662642,"name":"Fonte da Moura"},{"id":2127679008,"lat":41.1670363,"lon":-8.6600161,"name":"Bairro da Vilarinha"},{"id":2127688640,"lat":41.167208,"lon":-8.6600926,"name":"Bairro da Vilarinha"},{"id":2127708746,"lat":41.1688021,"lon":-8.6587421,"name":"Correia Pinto"},{"id":2127717916,"lat":41.1698146,"lon":-8.6576974,"name":"Lidador"},{"id":2127740818,"lat":41.1723707,"lon":-8.6554456,"name":"Pereiró"},{"id":2127755755,"lat":41.1777077,"lon":-8.6569463,"name":"Preciosa"},{"id":2127755756,"lat":41.1774493,"lon":-8.6567961,"name":"Preciosa"},{"id":2127758637,"lat":41.1811917,"lon":-8.6543736,"name":"Norteshopping"},{"id":2127765597,"lat":41.1816402,"lon":-8.6528721,"name":"Ruela"},{"id":2127768223,"lat":41.1795579,"lon":-8.651991,"name":"Ruela"},{"id":2127773418,"lat":41.1785293,"lon":-8.65435,"name":"Rotunda AEP"},{"id":2127791503,"lat":41.1743584,"lon":-8.6540656,"name":"Ezequiel Campos"},{"id":2127807819,"lat":41.1710114,"lon":-8.658042,"name":"Bairro Fonte da Moura"},{"id":2136037135,"lat":41.1405146,"lon":-8.6166645,"name":"Ribeira (Infante)"},{"id":2137425756,"lat":41.1770136,"lon":-8.6901115,"name":"Sousa Aroso"},{"id":2142779606,"lat":41.2075215,"lon":-8.5561458,"name":"Pavilhão CPN"},{"id":2142780258,"lat":41.2074871,"lon":-8.5557845,"name":"Pavilhão CPN"},{"id":2142780386,"lat":41.2092185,"lon":-8.5557059,"name":"João de Deus"},{"id":2142781629,"lat":41.2094129,"lon":-8.5555175,"name":"João de Deus"},{"id":2153289202,"lat":41.1650021,"lon":-8.6721358,"name":"Parque da Cidade"},{"id":2153296631,"lat":41.1675235,"lon":-8.6871802,"name":"Castelo do Queijo"},{"id":2156101591,"lat":41.1484717,"lon":-8.6475756,"name":"Gás"},{"id":2159585086,"lat":41.242363,"lon":-8.666039,"name":"Feira"},{"id":2159585109,"lat":41.2387477,"lon":-8.6668222,"name":"Pedras Rubras"},{"id":2159585112,"lat":41.2423388,"lon":-8.6661999,"name":"Feira"},{"id":2162541294,"lat":41.17373,"lon":-8.6854722,"name":"Doutor Afonso Cordeiro"},{"id":2162543698,"lat":41.1734362,"lon":-8.6855165,"name":"Doutor Afonso Cordeiro"},{"id":2162545245,"lat":41.172668,"lon":-8.6814637,"name":"Dom Afonso Henriques"},{"id":2162545246,"lat":41.1723834,"lon":-8.6816528,"name":"Dom Afonso Henriques"},{"id":2162592365,"lat":41.1843064,"lon":-8.6826009,"name":"Goa"},{"id":2162614502,"lat":41.1883243,"lon":-8.6851611,"name":"Senhor de Matosinhos"},{"id":2162773591,"lat":41.1870657,"lon":-8.6915384,"name":"Matosinhos (Mercado)"},{"id":2162870440,"lat":41.2090137,"lon":-8.6895311,"name":"Mar Shopping - Marlines"},{"id":2163807634,"lat":41.1654265,"lon":-8.6707914,"name":"Parque da Cidade"},{"id":2163809339,"lat":41.1679474,"lon":-8.669524,"name":"Bairro António Aroso"},{"id":2163810726,"lat":41.1700915,"lon":-8.6664425,"name":"Igreja de Aldoar"},{"id":2163811698,"lat":41.1657142,"lon":-8.6709241,"name":"Parque da Cidade"},{"id":2163812674,"lat":41.168327,"lon":-8.6690922,"name":"Bairro António Aroso"},{"id":2163814569,"lat":41.1728911,"lon":-8.6628386,"name":"Pedra Verde"},{"id":2163814570,"lat":41.1726417,"lon":-8.6629218,"name":"Pedra Verde"},{"id":2163823165,"lat":41.176173,"lon":-8.6631573,"name":"Lidador/Soeiro Mendes"},{"id":2163826186,"lat":41.1763848,"lon":-8.6640858,"name":"Lidador/Soeiro Mendes"},{"id":2163826187,"lat":41.1772772,"lon":-8.6636417,"name":"Hospital Magalhães Lemos"},{"id":2163828237,"lat":41.1778384,"lon":-8.6626307,"name":"Lidador Hospital;Lidador (Hospitais)"},{"id":2163828907,"lat":41.1773205,"lon":-8.6637358,"name":"Hospital Magalhães Lemos"},{"id":2163836028,"lat":41.1793252,"lon":-8.6665119,"name":"Quinta dos Ingleses"},{"id":2163837881,"lat":41.1761052,"lon":-8.6706988,"name":"Real"},{"id":2163843229,"lat":41.173626,"lon":-8.6735125,"name":"Teatro da Vilarinha"},{"id":2163845025,"lat":41.1718008,"lon":-8.6776377,"name":"Parque da Cidade"},{"id":2163846536,"lat":41.1714857,"lon":-8.6780177,"name":"Parque da Cidade"},{"id":2163848300,"lat":41.1732908,"lon":-8.6734266,"name":"Teatro da Vilarinha"},{"id":2163851736,"lat":41.1761971,"lon":-8.6696479,"name":"Real"},{"id":2163855686,"lat":41.1771863,"lon":-8.6624765,"name":"Lidador (Hospital)"},{"id":2163857752,"lat":41.1771439,"lon":-8.6606875,"name":"Azenha de Cima"},{"id":2163863497,"lat":41.1763373,"lon":-8.6615994},{"id":2163863498,"lat":41.1749534,"lon":-8.6607116,"name":"Lidador (Martim Moniz)"},{"id":2163866465,"lat":41.175983,"lon":-8.6664811,"name":"Centro Saúde Aldoar"},{"id":2163877421,"lat":41.1751836,"lon":-8.6614211,"name":"Lidador (Martim Moniz)"},{"id":2163893880,"lat":41.1709156,"lon":-8.6707049,"name":"Aldoar (Junta de Freguesia)"},{"id":2163893881,"lat":41.1707398,"lon":-8.6706599,"name":"Aldoar (Junta de Freguesia)"},{"id":2163897510,"lat":41.1718614,"lon":-8.6729814,"name":"Vilarinha"},{"id":2164002510,"lat":41.1785421,"lon":-8.6492206,"name":"IMTT"},{"id":2164002515,"lat":41.1785048,"lon":-8.6488197,"name":"IMTT"},{"id":2164016019,"lat":41.1773571,"lon":-8.6465089,"name":"Viso Metro"},{"id":2165501800,"lat":41.161451,"lon":-8.5818717,"name":"Estádio do Dragão"},{"id":2165508620,"lat":41.1630978,"lon":-8.585561,"name":"Dolce Vita"},{"id":2165508623,"lat":41.1627373,"lon":-8.5860224,"name":"Dolce Vita"},{"id":2165512397,"lat":41.1653018,"lon":-8.5888159,"name":"Antas (Loja do Cidadão)"},{"id":2165540628,"lat":41.157318,"lon":-8.5939664,"name":"Escola Soares dos Reis"},{"id":2165551832,"lat":41.1611347,"lon":-8.6039951,"name":"Marquês"},{"id":2165551844,"lat":41.1607793,"lon":-8.6041802,"name":"Marquês"},{"id":2165551847,"lat":41.1609448,"lon":-8.6041082,"name":"Marquês"},{"id":2165553996,"lat":41.1613639,"lon":-8.6047864,"name":"Marquês"},{"id":2165553997,"lat":41.16148,"lon":-8.6047382,"name":"Marquês"},{"id":2165562880,"lat":41.1606904,"lon":-8.6059813,"name":"Marquês"},{"id":2165582182,"lat":41.1611912,"lon":-8.6085629,"name":"Faria Guimarães"},{"id":2165586354,"lat":41.161589,"lon":-8.6109273,"name":"Antero de Quental"},{"id":2165604361,"lat":41.1620141,"lon":-8.614036,"name":"Clube Ténis do Porto"},{"id":2165660319,"lat":41.1622564,"lon":-8.616057,"name":"Monte Cativo"},{"id":2165667176,"lat":41.1626169,"lon":-8.6198269,"name":"Marracuene"},{"id":2165673574,"lat":41.1632144,"lon":-8.6240933,"name":"Oliveira Monteiro"},{"id":2165679011,"lat":41.1622706,"lon":-8.6247018,"name":"Quinta Amarela"},{"id":2165679012,"lat":41.1627653,"lon":-8.6248346,"name":"Quinta Amarela"},{"id":2165683056,"lat":41.1612922,"lon":-8.624793,"name":"Cruz Vermelha"},{"id":2165683405,"lat":41.1608055,"lon":-8.6246321,"name":"Cruz Vermelha"},{"id":2165692643,"lat":41.1591254,"lon":-8.640905,"name":"António Patrício"},{"id":2165694244,"lat":41.1586801,"lon":-8.6404987,"name":"António Patrício"},{"id":2165697802,"lat":41.1559832,"lon":-8.6418545,"name":"Casa das Artes"},{"id":2165700249,"lat":41.1611852,"lon":-8.6297738,"name":"Casa da Música"},{"id":2168028864,"lat":41.1555105,"lon":-8.5861157,"name":"Avenida 25 Abril"},{"id":2168028865,"lat":41.1577066,"lon":-8.5849718,"name":"Fonte Velha"},{"id":2168028866,"lat":41.158575,"lon":-8.583553,"name":"Estádio do Dragão"},{"id":2168028867,"lat":41.1593009,"lon":-8.5808279,"name":"Corujeira"},{"id":2168028868,"lat":41.1554883,"lon":-8.590067,"name":"Praça das Flores"},{"id":2168040993,"lat":41.1638484,"lon":-8.5702587,"name":"Escolas"},{"id":2168040994,"lat":41.1597988,"lon":-8.5772149,"name":"Ferreira dos Santos"},{"id":2168040995,"lat":41.1613566,"lon":-8.5729355,"name":"Cartes"},{"id":2168040996,"lat":41.160252,"lon":-8.5752221,"name":"Falcão"},{"id":2168756733,"lat":41.1626367,"lon":-8.5360712,"name":"Várzea"},{"id":2168756734,"lat":41.1614938,"lon":-8.5339254,"name":"Sta. Ovaia"},{"id":2168756736,"lat":41.1608941,"lon":-8.5313425,"name":"Sta. Cruz"},{"id":2168756737,"lat":41.1600642,"lon":-8.529575,"name":"Sta. Eulália"},{"id":2168761221,"lat":41.1686882,"lon":-8.5520867,"name":"Outeirinho"},{"id":2168761223,"lat":41.1675962,"lon":-8.5497075,"name":"Infante Santo"},{"id":2168761225,"lat":41.1645296,"lon":-8.5416589,"name":"Carvalha"},{"id":2168761228,"lat":41.1637615,"lon":-8.5393757,"name":"Carvalha de Baixo"},{"id":2168761231,"lat":41.1652042,"lon":-8.5435143,"name":"Dr. Américo Costa"},{"id":2168761234,"lat":41.166653,"lon":-8.5476986,"name":"Alto de Soutelo"},{"id":2168765033,"lat":41.1687331,"lon":-8.5548223,"name":"Soutelo de Baixo"},{"id":2168765034,"lat":41.1686483,"lon":-8.5594437,"name":"S. Caetano"},{"id":2168824883,"lat":41.1616586,"lon":-8.6569473},{"id":2168863290,"lat":41.158995,"lon":-8.6301829,"name":"Boavista Casa da Música"},{"id":2168872548,"lat":41.1667642,"lon":-8.6260751,"name":"Carvalhido"},{"id":2168873393,"lat":41.1667349,"lon":-8.6252329,"name":"Carvalhido"},{"id":2168901608,"lat":41.1695526,"lon":-8.596497,"name":"Salgueiros"},{"id":2168901609,"lat":41.1696838,"lon":-8.5966405,"name":"Salgueiros"},{"id":2168939244,"lat":41.1827883,"lon":-8.5997908,"name":"Hospital São João (Circunvalação)"},{"id":2168939247,"lat":41.1827358,"lon":-8.5995628,"name":"Hospital São João (Carreiras Este)"},{"id":2168939252,"lat":41.1828428,"lon":-8.600008,"name":"Hospital São João (Circunvalação)"},{"id":2168952691,"lat":41.1829357,"lon":-8.6008422,"name":"Hospital São João (Urgência)"},{"id":2168952694,"lat":41.1829599,"lon":-8.6009334,"name":"Hospital São João (Urgência)"},{"id":2168968235,"lat":41.1832183,"lon":-8.6019355,"name":"Hospital São João (metro)"},{"id":2168973223,"lat":41.1832608,"lon":-8.6021188,"name":"Hospital São João (metro)"},{"id":2168973224,"lat":41.1833232,"lon":-8.6023872,"name":"Hospital São João (metro);Hospital São João (metro) (Carreiras)"},{"id":2168974266,"lat":41.1833555,"lon":-8.6025508,"name":"Hospital São João (metro)"},{"id":2169073237,"lat":41.1797,"lon":-8.605456,"name":"Campus São João"},{"id":2169074222,"lat":41.1779598,"lon":-8.6058584,"name":"Universidade Católica - Biotecnologia"},{"id":2169076016,"lat":41.1763912,"lon":-8.6034685,"name":"Pólo Universitário (metro)"},{"id":2169089651,"lat":41.1749164,"lon":-8.6038923,"name":"Pólo Universitário"},{"id":2169089652,"lat":41.1736364,"lon":-8.6039526,"name":"Igreja de Paranhos"},{"id":2169089653,"lat":41.175198,"lon":-8.6038266,"name":"Pólo Universitário"},{"id":2169090757,"lat":41.1733023,"lon":-8.6037662,"name":"Igreja de Paranhos"},{"id":2169094763,"lat":41.1741623,"lon":-8.6003867,"name":"Cemitério de Paranhos"},{"id":2169094764,"lat":41.1742168,"lon":-8.6004819,"name":"Cemitério de Paranhos"},{"id":2169099529,"lat":41.1838949,"lon":-8.6043872,"name":"IPO (Circunvalação)"},{"id":2169103450,"lat":41.1831682,"lon":-8.6000192,"name":"Hospital São João"},{"id":2169103451,"lat":41.183297,"lon":-8.6004871,"name":"Hospital São João (Carreiras Oeste)"},{"id":2169103452,"lat":41.1832708,"lon":-8.6003825,"name":"Hospital São João (Carreiras Oeste 2)"},{"id":2169103453,"lat":41.1830955,"lon":-8.5997402,"name":"Hospital São João"},{"id":2169129965,"lat":41.184448,"lon":-8.6047989,"name":"Asprela"},{"id":2169142661,"lat":41.183963,"lon":-8.6095735,"name":"São Tomé"},{"id":2169145510,"lat":41.1837747,"lon":-8.6094407,"name":"São Tomé"},{"id":2169166675,"lat":41.1765886,"lon":-8.6079009,"name":"ISEP/Agra"},{"id":2169240435,"lat":41.1782425,"lon":-8.6139828,"name":"Telheira"},{"id":2169248219,"lat":41.1795587,"lon":-8.6139586,"name":"Berlengas"},{"id":2169252888,"lat":41.1802108,"lon":-8.6137521,"name":"Berlengas"},{"id":2169255697,"lat":41.1816198,"lon":-8.6137065,"name":"Azenha"},{"id":2169261261,"lat":41.1824727,"lon":-8.6134839,"name":"Amial"},{"id":2169297163,"lat":41.1839675,"lon":-8.6106944,"name":"São Tomé"},{"id":2169328714,"lat":41.180626,"lon":-8.6222717,"name":"Via Norte"},{"id":2169334915,"lat":41.1803686,"lon":-8.6220987,"name":"Via Norte"},{"id":2169382644,"lat":41.1814826,"lon":-8.6363658,"name":"Bairro Santo Eugénio"},{"id":2169387501,"lat":41.1824858,"lon":-8.6381817,"name":"Quartel Militar"},{"id":2169395618,"lat":41.182498,"lon":-8.6388509,"name":"Quartel Militar"},{"id":2169414551,"lat":41.1812329,"lon":-8.6365401,"name":"Bairro Santo Eugénio"},{"id":2169430822,"lat":41.1808344,"lon":-8.6362968,"name":"Cotovias"},{"id":2169431962,"lat":41.1806396,"lon":-8.636616,"name":"Cotovias"},{"id":2169445623,"lat":41.184245,"lon":-8.6413407,"name":"Alto do Viso"},{"id":2169448146,"lat":41.1840169,"lon":-8.6429554,"name":"Alto do Viso"},{"id":2169451179,"lat":41.1832993,"lon":-8.6452279,"name":"Rua do Senhor"},{"id":2169455714,"lat":41.1823549,"lon":-8.6464582,"name":"Rua do Senhor"},{"id":2169460916,"lat":41.1804024,"lon":-8.6498875,"name":"Senhora da Penha"},{"id":2169462557,"lat":41.1809465,"lon":-8.6495576,"name":"Senhora da Penha"},{"id":2169465559,"lat":41.1793375,"lon":-8.6517678,"name":"Ruela"},{"id":2169467319,"lat":41.1783119,"lon":-8.6540479,"name":"Rotunda AEP"},{"id":2169474642,"lat":41.17596,"lon":-8.6508452,"name":"Manuel Pinto Azevedo 3"},{"id":2171891229,"lat":41.1818172,"lon":-8.6901617,"name":"Brito Capelo (Parque Estacionamento)"},{"id":2171973350,"lat":41.1932259,"lon":-8.6983156,"name":"Igreja Leça"},{"id":2173732524,"lat":41.1645489,"lon":-8.6370546,"name":"Sidónio Pais"},{"id":2175215208,"lat":41.1529196,"lon":-8.5915283,"name":"Godim"},{"id":2175215211,"lat":41.1504354,"lon":-8.5947147,"name":"Bonfim"},{"id":2175560244,"lat":41.1801849,"lon":-8.6606317,"name":"Azenha de Cima;Quinta Seca"},{"id":2175560247,"lat":41.1799154,"lon":-8.660165,"name":"Azenha de Cima"},{"id":2175568036,"lat":41.1806738,"lon":-8.6637578,"name":"Hospital Pedro Hispano"},{"id":2175583123,"lat":41.1806341,"lon":-8.6665044,"name":"Quinta Seca"},{"id":2175590527,"lat":41.1804726,"lon":-8.6689037,"name":"Quinta Seca"},{"id":2175595265,"lat":41.1790423,"lon":-8.6726239,"name":"Parque de Real"},{"id":2175605199,"lat":41.1791453,"lon":-8.6764085,"name":"Escola Secundária Gonçalo Zarco"},{"id":2175626851,"lat":41.1793532,"lon":-8.6768363,"name":"Escola Secundária Gonçalo Zarco"},{"id":2175633659,"lat":41.1797691,"lon":-8.6730517,"name":"Parque de Real (Cruz de Pau)"},{"id":2175633660,"lat":41.1799356,"lon":-8.6728425,"name":"Parque de Real"},{"id":2177485774,"lat":41.2475954,"lon":-8.6630022,"name":"Pedras Rubras (Estação)"},{"id":2177493971,"lat":41.2479594,"lon":-8.66238},{"id":2177508290,"lat":41.1660919,"lon":-8.5695776,"name":"São Roque"},{"id":2178430581,"lat":41.1951247,"lon":-8.6866151,"name":"Quinta da Conceição"},{"id":2178447919,"lat":41.1937734,"lon":-8.6891364,"name":"Cais 6/Entre Quintas"},{"id":2178448600,"lat":41.1916481,"lon":-8.6923497,"name":"Quinta de Santiago"},{"id":2178522507,"lat":41.1934868,"lon":-8.7069798,"name":"Piscina das Marés"},{"id":2178556912,"lat":41.2009704,"lon":-8.7035667,"name":"Belchior Robles"},{"id":2178565443,"lat":41.1989977,"lon":-8.7056401,"name":"Pedras Novais"},{"id":2178578924,"lat":41.1956262,"lon":-8.703902,"name":"Américo Braga"},{"id":2178582178,"lat":41.1934313,"lon":-8.7024777,"name":"Sardoal (Combatentes)"},{"id":2178594466,"lat":41.2206649,"lon":-8.7132926,"name":"Cabo do Mundo/Rochedo"},{"id":2178594467,"lat":41.2205696,"lon":-8.7133709,"name":"Cabo do Mundo/Rochedo"},{"id":2178624184,"lat":41.2222801,"lon":-8.7146281,"name":"Cartódromo"},{"id":2178624187,"lat":41.2222255,"lon":-8.7145029,"name":"Cabo do Mundo (Kartódromo)"},{"id":2178630152,"lat":41.2240151,"lon":-8.7139629,"name":"Cartódromo"},{"id":2178630153,"lat":41.2239172,"lon":-8.7139938,"name":"Cartódromo"},{"id":2178636695,"lat":41.2246788,"lon":-8.7161463,"name":"Cabo do Mundo"},{"id":2178638434,"lat":41.2250444,"lon":-8.716226,"name":"Praia do Paraíso"},{"id":2178643106,"lat":41.2279298,"lon":-8.7194704,"name":"Facho"},{"id":2178643107,"lat":41.227679,"lon":-8.7195391,"name":"Facho"},{"id":2178646953,"lat":41.2310842,"lon":-8.7194607,"name":"Praia da Memória"},{"id":2178646954,"lat":41.2306156,"lon":-8.7194477,"name":"Memória"},{"id":2178647467,"lat":41.2345926,"lon":-8.7210361,"name":"ALADI"},{"id":2178647468,"lat":41.2339978,"lon":-8.7206744,"name":"ALADI"},{"id":2178649993,"lat":41.2371013,"lon":-8.721997,"name":"Praia do Marreco"},{"id":2178651175,"lat":41.2372045,"lon":-8.7222295,"name":"Marreco"},{"id":2178655899,"lat":41.2402046,"lon":-8.7225321,"name":"Agudela"},{"id":2178657365,"lat":41.2437405,"lon":-8.7225295,"name":"Escola EB1 Agudela"},{"id":2178661101,"lat":41.2452676,"lon":-8.7231869,"name":"Padre Amaro"},{"id":2178664425,"lat":41.2521309,"lon":-8.7195307,"name":"Corgo"},{"id":2178667916,"lat":41.2543597,"lon":-8.720985,"name":"Ofélia da Cruz Costa"},{"id":2178668849,"lat":41.2541722,"lon":-8.7210037,"name":"Ofélia da Cruz Costa"},{"id":2178675463,"lat":41.2571726,"lon":-8.7232488,"name":"Certagem"},{"id":2178675464,"lat":41.2610248,"lon":-8.7243844,"name":"Sargaceiras"},{"id":2178684869,"lat":41.2627604,"lon":-8.7251361,"name":"Praia do Barreiro"},{"id":2178684872,"lat":41.262671,"lon":-8.7252363,"name":"Avenida da Praia"},{"id":2178695591,"lat":41.2432283,"lon":-8.7244254,"name":"Verdeiro Carmo"},{"id":2178700549,"lat":41.2396905,"lon":-8.7233324,"name":"Agudela"},{"id":2178726772,"lat":41.2245815,"lon":-8.7108922,"name":"Aldeia Nova"},{"id":2178735354,"lat":41.2246042,"lon":-8.7107282,"name":"Aldeia Nova"},{"id":2178741916,"lat":41.2241936,"lon":-8.7069154,"name":"Guarda"},{"id":2178745434,"lat":41.2246586,"lon":-8.7050526,"name":"Montedouro"},{"id":2178746115,"lat":41.2246899,"lon":-8.7032435,"name":"Cruzeiro"},{"id":2178746116,"lat":41.2245578,"lon":-8.7033334,"name":"Cruzeiro"},{"id":2178750865,"lat":41.2246264,"lon":-8.7007343,"name":"Perafita Urbanização"},{"id":2178751925,"lat":41.2247615,"lon":-8.7010804,"name":"Perafita Urbanização"},{"id":2178758961,"lat":41.224353,"lon":-8.6986784,"name":"Perafita Igreja"},{"id":2178758962,"lat":41.2244609,"lon":-8.6989305,"name":"Perafita Igreja"},{"id":2178761397,"lat":41.2240897,"lon":-8.6976954,"name":"Perafita Igreja"},{"id":2178762341,"lat":41.2243339,"lon":-8.6973078,"name":"Perafita Igreja"},{"id":2178765373,"lat":41.2223971,"lon":-8.6970945,"name":"Rua do Progresso"},{"id":2178769827,"lat":41.2202299,"lon":-8.6967543,"name":"Rua do Progresso 2"},{"id":2178770525,"lat":41.217704,"lon":-8.6952683,"name":"Kart Center"},{"id":2178773783,"lat":41.2143718,"lon":-8.6940854,"name":"Abade Mondego"},{"id":2178773786,"lat":41.2142724,"lon":-8.694018,"name":"Abade Mondego"},{"id":2178779449,"lat":41.2118198,"lon":-8.6950601,"name":"Monte Espinho"},{"id":2178779455,"lat":41.2119419,"lon":-8.6949045,"name":"Monte Espinho"},{"id":2181234733,"lat":41.1661392,"lon":-8.6597228,"name":"Bairro da Vilarinha"},{"id":2181235869,"lat":41.1661775,"lon":-8.6596062,"name":"Bairro da Vilarinha"},{"id":2181240916,"lat":41.1656705,"lon":-8.6575166,"name":"Bairro da Previdência"},{"id":2181240917,"lat":41.1657353,"lon":-8.6576602,"name":"Bairro da Previdência"},{"id":2181247721,"lat":41.1670064,"lon":-8.6545985,"name":"Alberto Macedo"},{"id":2181247724,"lat":41.1672436,"lon":-8.654754,"name":"Alberto Macedo"},{"id":2181250366,"lat":41.1663623,"lon":-8.6505658,"name":"São João de Brito"},{"id":2181257077,"lat":41.1623592,"lon":-8.6511049,"name":"Pinheiro Manso"},{"id":2181257078,"lat":41.1621774,"lon":-8.6509762,"name":"Pinheiro Manso"},{"id":2181269225,"lat":41.1659716,"lon":-8.6479694,"name":"São João Bosco"},{"id":2181269226,"lat":41.1661201,"lon":-8.6478562,"name":"São João Bosco"},{"id":2181279389,"lat":41.1683299,"lon":-8.6488639,"name":"Igreja de Ramalde"},{"id":2181279390,"lat":41.1682704,"lon":-8.6487459,"name":"Igreja de Ramalde"},{"id":2181281343,"lat":41.1689296,"lon":-8.6510298,"name":"Centro Saúde de Ramalde"},{"id":2181281344,"lat":41.169074,"lon":-8.6509922,"name":"Centro Saúde de Ramalde"},{"id":2181284175,"lat":41.1698392,"lon":-8.6542136,"name":"Bairro das Campinas"},{"id":2181285960,"lat":41.1696312,"lon":-8.6540473,"name":"Bairro das Campinas"},{"id":2181290347,"lat":41.1704358,"lon":-8.6558846,"name":"Antunes Guimarães"},{"id":2181290348,"lat":41.1705287,"lon":-8.655788,"name":"Antunes Guimarães"},{"id":2181319789,"lat":41.1683859,"lon":-8.6458737,"name":"Casa de Ramalde"},{"id":2181319790,"lat":41.1682937,"lon":-8.6458097,"name":"Casa de Ramalde"},{"id":2181323485,"lat":41.1703363,"lon":-8.6462922,"name":"Francos Zona Industrial"},{"id":2181328495,"lat":41.1704393,"lon":-8.6428643,"name":"Francos Bombeiros"},{"id":2181337483,"lat":41.1710429,"lon":-8.6445393,"name":"Engenheiro Ferreira Dias"},{"id":2181337484,"lat":41.1709158,"lon":-8.6446024,"name":"Engenheiro Ferreira Dias"},{"id":2181346273,"lat":41.1727147,"lon":-8.6468204,"name":"Manuel Pinto de Azevedo 1"},{"id":2181347527,"lat":41.1732617,"lon":-8.647271,"name":"Manuel Pinto de Azevedo 1"},{"id":2181349083,"lat":41.1741158,"lon":-8.648572,"name":"Manuel Pinto de Azevedo 2"},{"id":2181350363,"lat":41.1744106,"lon":-8.6486458,"name":"Manuel Pinto de Azevedo"},{"id":2181362704,"lat":41.1780809,"lon":-8.646614,"name":"Viso Metro"},{"id":2181369197,"lat":41.1756734,"lon":-8.644707,"name":"Julgado de Paz"},{"id":2181369770,"lat":41.1757794,"lon":-8.644652,"name":"Julgado de Paz"},{"id":2181371055,"lat":41.1774934,"lon":-8.6434141,"name":"Viso"},{"id":2181384999,"lat":41.1785609,"lon":-8.6453812,"name":"Viso"},{"id":2181385021,"lat":41.1808181,"lon":-8.6456554,"name":"Jerónimo de Azevedo"},{"id":2181385042,"lat":41.1809294,"lon":-8.6453561,"name":"Jerónimo de Azevedo"},{"id":2181390937,"lat":41.1778205,"lon":-8.6422635,"name":"Viso"},{"id":2181394140,"lat":41.1733244,"lon":-8.6421482,"name":"Ramalde do Meio"},{"id":2181396285,"lat":41.1732941,"lon":-8.6419094,"name":"Ramalde do Meio"},{"id":2185742495,"lat":41.1519632,"lon":-8.6345156,"name":"Gólgota"},{"id":2201482550,"lat":41.189496,"lon":-8.6822894,"name":"Regadio"},{"id":2209843349,"lat":41.1826836,"lon":-8.685571,"name":"Parque Basílio Teles"},{"id":2209850613,"lat":41.1645229,"lon":-8.632113,"name":"Casa de Saúde da Boavista"},{"id":2210475762,"lat":41.1664851,"lon":-8.6272265,"name":"Carvalhido"},{"id":2211013887,"lat":41.1708525,"lon":-8.6373029,"name":"Urbanização Prelada"},{"id":2211016580,"lat":41.1719831,"lon":-8.6352054,"name":"Urbanização Prelada II"},{"id":2211017074,"lat":41.1724556,"lon":-8.6357378,"name":"Urbanização Prelada II"},{"id":2211018001,"lat":41.1733893,"lon":-8.6371889,"name":"Prelada"},{"id":2211018435,"lat":41.1735287,"lon":-8.6372547,"name":"Prelada"},{"id":2211019586,"lat":41.1703155,"lon":-8.6484136,"name":"Bairro Ramalde"},{"id":2211019587,"lat":41.1704288,"lon":-8.6484633,"name":"Bairro Ramalde"},{"id":2211026721,"lat":41.1511326,"lon":-8.604309,"name":"Rua Firmeza"},{"id":2211034151,"lat":41.1465867,"lon":-8.6045413,"name":"Coliseu do Porto"},{"id":2211034653,"lat":41.1473629,"lon":-8.6016697,"name":"Largo do Padrão"},{"id":2211036205,"lat":41.1514309,"lon":-8.6073455,"name":"Bolhão"},{"id":2211036206,"lat":41.1517012,"lon":-8.6072326,"name":"Bolhão"},{"id":2214789250,"lat":41.2165259,"lon":-8.5536589,"name":"Ermesinde (Estação)"},{"id":2218334772,"lat":41.1439487,"lon":-8.6071927},{"id":2218334788,"lat":41.1438073,"lon":-8.6072597},{"id":2231770730,"lat":41.3591729,"lon":-8.7504089,"name":"Escola José Régio"},{"id":2232026908,"lat":41.3585291,"lon":-8.7549474,"name":"Avenida Comandante Coutinho Lanhoso"},{"id":2232026909,"lat":41.3587365,"lon":-8.7545799,"name":"Avenida Comandante Coutinho Lanhoso"},{"id":2232026910,"lat":41.3616898,"lon":-8.7572809,"name":"Rua Doutor Carlos Pinto Ferreira"},{"id":2232031031,"lat":41.3616595,"lon":-8.7573803,"name":"Rua Doutor Carlos Pinto Ferreira"},{"id":2232062097,"lat":41.3637897,"lon":-8.7587863,"name":"Rua António Bento Martins Júnior"},{"id":2232062098,"lat":41.3636165,"lon":-8.7585475,"name":"Rua António Bento Martins Júnior"},{"id":2244958131,"lat":41.1636635,"lon":-8.6063539,"name":"Constituição"},{"id":2244960440,"lat":41.1622964,"lon":-8.6075461,"name":"Faria Guimarães"},{"id":2244962630,"lat":41.1633172,"lon":-8.6089704,"name":"Constituição"},{"id":2244967801,"lat":41.1626347,"lon":-8.6101841,"name":"Antero de Quental"},{"id":2244968764,"lat":41.1630022,"lon":-8.6129736,"name":"Piscina (Constituição)"},{"id":2244974430,"lat":41.1633364,"lon":-8.6156196,"name":"Sapadores Bombeiros"},{"id":2244975528,"lat":41.1636181,"lon":-8.6178968,"name":"BCG"},{"id":2244977015,"lat":41.1641067,"lon":-8.6217779,"name":"Serpa Pinto"},{"id":2244978984,"lat":41.1646297,"lon":-8.6258669,"name":"Avenida França"},{"id":2244984243,"lat":41.1628709,"lon":-8.6314205,"name":"Domingos Sequeira"},{"id":2244984245,"lat":41.1647518,"lon":-8.6298085,"name":"Rua Francisco Sanches"},{"id":2244985808,"lat":41.1610101,"lon":-8.6296341,"name":"Casa da Música"},{"id":2244991447,"lat":41.1542046,"lon":-8.6316578,"name":"Gonçalo Sampaio"},{"id":2245528137,"lat":41.1466959,"lon":-8.6110924},{"id":2250805072,"lat":41.1540126,"lon":-8.6119232,"name":"Praça da República"},{"id":2250807486,"lat":41.1541327,"lon":-8.6119339,"name":"Praça da República"},{"id":2250812498,"lat":41.1546134,"lon":-8.6134024,"name":"Praça da República"},{"id":2250819752,"lat":41.1564855,"lon":-8.6202474,"name":"Carvalhosa"},{"id":2250826932,"lat":41.1571725,"lon":-8.624214,"name":"Hospital Militar"},{"id":2250844734,"lat":41.1581606,"lon":-8.6278542,"name":"Boavista Correios"},{"id":2250848833,"lat":41.1575346,"lon":-8.6274867,"name":"Boavista Brasília"},{"id":2250852474,"lat":41.1568045,"lon":-8.6250244,"name":"Hospital Militar"},{"id":2250856300,"lat":41.155811,"lon":-8.6223583,"name":"Igreja de Cedofeita"},{"id":2250861368,"lat":41.1561098,"lon":-8.6207704,"name":"Carvalhosa"},{"id":2250866766,"lat":41.1545366,"lon":-8.6189438,"name":"Cedofeita"},{"id":2250876974,"lat":41.1551021,"lon":-8.6186354,"name":"Cedofeita"},{"id":2250877464,"lat":41.1542337,"lon":-8.6138906,"name":"Praça da República"},{"id":2250906032,"lat":41.1558029,"lon":-8.6283398,"name":"Boavista Bom Sucesso"},{"id":2250906035,"lat":41.1565139,"lon":-8.6296541,"name":"Boavista Bom Sucesso"},{"id":2250912625,"lat":41.1558837,"lon":-8.6285059,"name":"Boavista Bom Sucesso"},{"id":2250912629,"lat":41.1560513,"lon":-8.628616,"name":"Boavista Bom Sucesso"},{"id":2255728678,"lat":41.1859966,"lon":-8.6790927,"name":"Hospital Matosinhos"},{"id":2255901198,"lat":41.1857392,"lon":-8.6616006,"name":"Estádio do Mar (metro)"},{"id":2255903440,"lat":41.1866718,"lon":-8.6631939,"name":"Feira Senhora Hora"},{"id":2255908367,"lat":41.186369,"lon":-8.663175,"name":"Feira Senhora da Hora"},{"id":2255914068,"lat":41.1851084,"lon":-8.6630007,"name":"Feira Senhora da Hora"},{"id":2255914069,"lat":41.1851952,"lon":-8.6630168,"name":"Feira Senhora da Hora"},{"id":2255922788,"lat":41.1847628,"lon":-8.6618722,"name":"Parque J. G. Laranjo;E.S.A.D."},{"id":2255925219,"lat":41.1844437,"lon":-8.6619177,"name":"Parque J. G. Laranjo"},{"id":2255944875,"lat":41.1860997,"lon":-8.6587571,"name":"Carriçal"},{"id":2257921418,"lat":41.1863177,"lon":-8.6579786,"name":"Carriçal"},{"id":2257929165,"lat":41.1864617,"lon":-8.6549318,"name":"Senhora da Hora"},{"id":2258124532,"lat":41.1807089,"lon":-8.6730218,"name":"Cruz de Pau"},{"id":2258124536,"lat":41.1808694,"lon":-8.6733235,"name":"Cruz de Pau"},{"id":2258130833,"lat":41.1823147,"lon":-8.6751676,"name":"Água Viva"},{"id":2258130891,"lat":41.1824167,"lon":-8.6753218,"name":"Água Viva"},{"id":2258133653,"lat":41.1845252,"lon":-8.6775239,"name":"Tribunal de Matosinhos"},{"id":2258147236,"lat":41.1772053,"lon":-8.6757094,"name":"António Carneiro"},{"id":2268066924,"lat":41.2135107,"lon":-8.6948598,"name":"Padrão"},{"id":2268068838,"lat":41.2163451,"lon":-8.6922388,"name":"Joaquim Alves da Silva"},{"id":2268068841,"lat":41.2162799,"lon":-8.6924712,"name":"Joaquim Alves da Silva"},{"id":2268074950,"lat":41.2188393,"lon":-8.6904127,"name":"Nó do Freixieiro"},{"id":2268075813,"lat":41.2189583,"lon":-8.6901324,"name":"Nó do Freixieiro"},{"id":2268077021,"lat":41.2211796,"lon":-8.6882722,"name":"31 de Janeiro"},{"id":2268077968,"lat":41.2213369,"lon":-8.6879664,"name":"31 de Janeiro"},{"id":2268080774,"lat":41.2233968,"lon":-8.6861439,"name":"Oliveiras"},{"id":2268082878,"lat":41.2235793,"lon":-8.6861332,"name":"Oliveiras"},{"id":2268112378,"lat":41.2256945,"lon":-8.6839955,"name":"Freixieiro"},{"id":2268112382,"lat":41.2260929,"lon":-8.6841483,"name":"Freixieiro"},{"id":2268114848,"lat":41.2262031,"lon":-8.6808026,"name":"Freixieiro"},{"id":2268123567,"lat":41.2302471,"lon":-8.675802,"name":"Telheira"},{"id":2268125489,"lat":41.2304301,"lon":-8.6747137,"name":"Telheira"},{"id":2268129072,"lat":41.2339228,"lon":-8.6704973,"name":"Barreiro"},{"id":2268129073,"lat":41.2337463,"lon":-8.6704865,"name":"Barreiro"},{"id":2268134058,"lat":41.2383995,"lon":-8.6665705,"name":"Pedras Rubras"},{"id":2268134059,"lat":41.2381867,"lon":-8.6665276,"name":"Pedras Rubras"},{"id":2268135925,"lat":41.2389502,"lon":-8.6639379,"name":"Botica"},{"id":2268142944,"lat":41.2453627,"lon":-8.6647198,"name":"Doutor A. Carlos Maia"},{"id":2268144373,"lat":41.2455371,"lon":-8.664815,"name":"Doutor A. Carlos Maia"},{"id":2269650924,"lat":41.1561872,"lon":-8.6045856,"name":"Fontinha"},{"id":2269660969,"lat":41.1590185,"lon":-8.6044729,"name":"Doze Casas"},{"id":2269673179,"lat":41.1578694,"lon":-8.5988993,"name":"Dona Amélia"},{"id":2269693632,"lat":41.148912,"lon":-8.6069457,"name":"Bolhão (Mercado)"},{"id":2269693633,"lat":41.1493913,"lon":-8.6066992,"name":"Bolhão (Mercado)"},{"id":2269708001,"lat":41.2184702,"lon":-8.6740184,"name":"Casa do Povo"},{"id":2269708003,"lat":41.2172016,"lon":-8.6728693,"name":"Casa do Povo"},{"id":2269712896,"lat":41.2166231,"lon":-8.6748861,"name":"Santa Cruz do Bispo"},{"id":2269712899,"lat":41.217075,"lon":-8.6745924,"name":"Santa Cruz do Bispo"},{"id":2269718119,"lat":41.2144954,"lon":-8.6747024,"name":"Ponte Carro"},{"id":2269718120,"lat":41.2146962,"lon":-8.6749076,"name":"Ponte Carro"},{"id":2269724370,"lat":41.2124162,"lon":-8.6757914,"name":"Monte Avô"},{"id":2269724375,"lat":41.212508,"lon":-8.6754454,"name":"Monte Avô"},{"id":2269724379,"lat":41.2124717,"lon":-8.6755647,"name":"Monte Avô"},{"id":2269726844,"lat":41.2126149,"lon":-8.6760194,"name":"Monte Avô"},{"id":2269730999,"lat":41.2143078,"lon":-8.6785178,"name":"Gatanhal"},{"id":2269732321,"lat":41.2149069,"lon":-8.6795311,"name":"Gatanhal"},{"id":2269734351,"lat":41.2168167,"lon":-8.6800405,"name":"Baldões"},{"id":2269738055,"lat":41.2174634,"lon":-8.6797034,"name":"Baldões"},{"id":2269740398,"lat":41.2199739,"lon":-8.6790668,"name":"Travessa Trás"},{"id":2269740399,"lat":41.2199288,"lon":-8.678888,"name":"Travessa Trás"},{"id":2269742367,"lat":41.2224668,"lon":-8.6786104,"name":"Farrapas"},{"id":2269744908,"lat":41.2226737,"lon":-8.6788083,"name":"Farrapas"},{"id":2269747355,"lat":41.2245508,"lon":-8.6801647,"name":"Rua Oriental"},{"id":2269748207,"lat":41.2251237,"lon":-8.6804906,"name":"Rua Oriental"},{"id":2269754337,"lat":41.2247421,"lon":-8.6825106,"name":"Farrapas"},{"id":2269757066,"lat":41.218067,"lon":-8.6959497,"name":"Kart Center"},{"id":2277020937,"lat":41.3449957,"lon":-8.7369965,"name":"Igreja de Azurara"},{"id":2277025043,"lat":41.3493833,"lon":-8.7385415,"name":"EN 13"},{"id":2277092164,"lat":41.3669831,"lon":-8.750134,"name":"Agros / McDonald's"},{"id":2277092166,"lat":41.3543867,"lon":-8.7413605,"name":"Mercado de Vila do Conde"},{"id":2277092167,"lat":41.3621759,"lon":-8.7460785},{"id":2277092168,"lat":41.3617552,"lon":-8.7459175},{"id":2277092172,"lat":41.3592569,"lon":-8.743726,"name":"Auto Benguiados"},{"id":2277092174,"lat":41.3636435,"lon":-8.7474169,"name":"Plus"},{"id":2352635191,"lat":41.1844129,"lon":-8.6472248,"name":"Senhora da Penha"},{"id":2352691715,"lat":41.1895489,"lon":-8.6517514,"name":"Quatro Caminhos"},{"id":2352699151,"lat":41.1897114,"lon":-8.6516884,"name":"Quatro Caminhos"},{"id":2352721955,"lat":41.1894334,"lon":-8.6413304,"name":"Sta. Apolónia"},{"id":2352721972,"lat":41.1895788,"lon":-8.6408007,"name":"Sta. Apolónia"},{"id":2352737277,"lat":41.1915543,"lon":-8.6382666,"name":"Fogueteiros"},{"id":2352737282,"lat":41.1916057,"lon":-8.6378844,"name":"Fogueteiros"},{"id":2352764259,"lat":41.1925382,"lon":-8.6346738,"name":"Padrão da Légua"},{"id":2352779627,"lat":41.1925806,"lon":-8.6336237,"name":"Padrão da Légua"},{"id":2352787572,"lat":41.1917944,"lon":-8.633554,"name":"Padrão da Légua"},{"id":2356063437,"lat":41.1412745,"lon":-8.6106674,"name":"Elevador dos Guindais"},{"id":2356067172,"lat":41.1411209,"lon":-8.6105208,"name":"Elevador dos Guindais"},{"id":2356078087,"lat":41.1390565,"lon":-8.6094653,"name":"Ponte Luíz I"},{"id":2356171652,"lat":41.128964,"lon":-8.6118518,"name":"Tribunal de Gaia"},{"id":2356179421,"lat":41.1289364,"lon":-8.6100232,"name":"Tribunal de Gaia"},{"id":2356189637,"lat":41.1292132,"lon":-8.6088551,"name":"Hospital de Gaia"},{"id":2356201298,"lat":41.1253381,"lon":-8.6058953,"name":"El Corte Inglês"},{"id":2356205032,"lat":41.1245482,"lon":-8.6059718,"name":"Parque da República"},{"id":2356217849,"lat":41.1223175,"lon":-8.6061461,"name":"Moçambique"},{"id":2356219792,"lat":41.1195776,"lon":-8.6064304,"name":"Dom João II"},{"id":2356227937,"lat":41.1158657,"lon":-8.6067929,"name":"Santo Ovídio"},{"id":2356230117,"lat":41.1158131,"lon":-8.6070259,"name":"Santo Ovídio"},{"id":2356237351,"lat":41.1160172,"lon":-8.6063258,"name":"Santo Ovídio"},{"id":2356258273,"lat":41.1201495,"lon":-8.605602,"name":"Dom João II"},{"id":2356261307,"lat":41.1223175,"lon":-8.6058698,"name":"Angola/Moçambique"},{"id":2356267002,"lat":41.1253058,"lon":-8.6056123,"name":"João de Deus"},{"id":2356274624,"lat":41.1306173,"lon":-8.6063446,"name":"Câmara de Gaia"},{"id":2356278533,"lat":41.1305204,"lon":-8.6065914,"name":"Câmara de Gaia"},{"id":2356281949,"lat":41.1337972,"lon":-8.6076401,"name":"General Torres"},{"id":2356283673,"lat":41.1340911,"lon":-8.6074322,"name":"General Torres"},{"id":2359462298,"lat":41.1735126,"lon":-8.6336177,"name":"Casa da Prelada"},{"id":2359462299,"lat":41.1730331,"lon":-8.6332125,"name":"Casa da Prelada"},{"id":2359472097,"lat":41.1825767,"lon":-8.6486274,"name":"Sete Bicas"},{"id":2359472099,"lat":41.1887919,"lon":-8.6516221,"name":"Quatro Caminhos"},{"id":2362305055,"lat":41.1727609,"lon":-8.6263571,"name":"Cintura Interna"},{"id":2362305056,"lat":41.1720835,"lon":-8.6263128,"name":"Cintura Interna"},{"id":2362316539,"lat":41.166519,"lon":-8.6250267,"name":"Carvalhido"},{"id":2378049281,"lat":41.1690781,"lon":-8.6229693,"name":"Bairro do Carvalhido"},{"id":2378985893,"lat":41.1707758,"lon":-8.6128245,"name":"Arca d'Água"},{"id":2378985894,"lat":41.1707556,"lon":-8.6129559,"name":"Arca d'Água"},{"id":2378990398,"lat":41.1687304,"lon":-8.6124315,"name":"Centro Saúde Paranhos"},{"id":2378990402,"lat":41.1681802,"lon":-8.6123229,"name":"Centro Saúde Paranhos"},{"id":2379109887,"lat":41.1662787,"lon":-8.6114196,"name":"Vale Formoso"},{"id":2379109888,"lat":41.1658436,"lon":-8.6113821,"name":"Vale Formoso"},{"id":2379113758,"lat":41.1639137,"lon":-8.6111198,"name":"Constituição"},{"id":2379117416,"lat":41.1634483,"lon":-8.6109883,"name":"Constituição"},{"id":2379125309,"lat":41.1680167,"lon":-8.6105077,"name":"Campo Lindo"},{"id":2379129346,"lat":41.1697986,"lon":-8.607973,"name":"Largo Campo Lindo"},{"id":2379129347,"lat":41.1697219,"lon":-8.6082747,"name":"Largo Campo Lindo"},{"id":2379131111,"lat":41.1725788,"lon":-8.6091049,"name":"Universidade Fernando Pessoa"},{"id":2379158890,"lat":41.1738912,"lon":-8.6131978,"name":"Cintura Interna"},{"id":2379158894,"lat":41.1736166,"lon":-8.6131978,"name":"Cintura Interna"},{"id":2379175715,"lat":41.1754129,"lon":-8.6138536,"name":"Carlos Amarante"},{"id":2379176729,"lat":41.1754407,"lon":-8.6137235,"name":"Carlos Amarante"},{"id":2379195513,"lat":41.1771947,"lon":-8.6142163,"name":"Telheira"},{"id":2379195517,"lat":41.1840493,"lon":-8.6134398,"name":"Amial"},{"id":2379201753,"lat":41.1848338,"lon":-8.6131568,"name":"Telheiro"},{"id":2379213328,"lat":41.1862921,"lon":-8.6130845,"name":"Telheiro"},{"id":2379631941,"lat":41.1877718,"lon":-8.6126614,"name":"Flores"},{"id":2379631942,"lat":41.1882865,"lon":-8.6123543,"name":"Flores"},{"id":2379633455,"lat":41.1875972,"lon":-8.6126802},{"id":2379634901,"lat":41.1910821,"lon":-8.6116261,"name":"São Mamede (mercado)"},{"id":2379634902,"lat":41.1905058,"lon":-8.6119386,"name":"São Mamede (mercado)"},{"id":2379644181,"lat":41.1923012,"lon":-8.6115148,"name":"São Mamede"},{"id":2379648282,"lat":41.1930056,"lon":-8.6120874,"name":"Godinho Faria"},{"id":2379648283,"lat":41.1929996,"lon":-8.6129484,"name":"Godinho Faria"},{"id":2380458570,"lat":41.1927534,"lon":-8.6159793,"name":"Pedra Verde"},{"id":2380458573,"lat":41.1927221,"lon":-8.6162114,"name":"Pedra Verde"},{"id":2380460892,"lat":41.1917179,"lon":-8.6199249,"name":"Picoutos (Viadutos)"},{"id":2380460893,"lat":41.1915363,"lon":-8.6204573,"name":"Picoutos (Viaduto)"},{"id":2380496633,"lat":41.1928805,"lon":-8.6330811,"name":"Padrão da Légua"},{"id":2381106842,"lat":41.2399183,"lon":-8.6695294,"name":"Aeroporto"},{"id":2381107759,"lat":41.2401896,"lon":-8.6712326,"name":"Aeroporto"},{"id":2381115135,"lat":41.2363977,"lon":-8.6704011,"name":"Aeroporto"},{"id":2381115136,"lat":41.2371238,"lon":-8.6705674,"name":"Aeroporto"},{"id":2381115137,"lat":41.2367787,"lon":-8.6704947},{"id":2385303908,"lat":41.1877686,"lon":-8.4896129,"name":"Presa"},{"id":2401407297,"lat":41.2275196,"lon":-8.6189688,"name":"Santos Leite"},{"id":2401407431,"lat":41.2274831,"lon":-8.6186798,"name":"Santos Leite"},{"id":2401416210,"lat":41.2295328,"lon":-8.6208175,"name":"Igreja da Maia"},{"id":2401420095,"lat":41.2300704,"lon":-8.6207833,"name":"Igreja Maia"},{"id":2401420976,"lat":41.2324224,"lon":-8.6212956,"name":"Maia (Câmara)"},{"id":2401420977,"lat":41.2311123,"lon":-8.6216885,"name":"Psp"},{"id":2401421765,"lat":41.2326161,"lon":-8.6223403,"name":"Maia (Câmara)"},{"id":2401427127,"lat":41.2326766,"lon":-8.6264226},{"id":2401428704,"lat":41.2327643,"lon":-8.6238786,"name":"Maia"},{"id":2401441952,"lat":41.2325565,"lon":-8.6251003,"name":"Visconde Barreiros"},{"id":2401446110,"lat":41.2326284,"lon":-8.6273052,"name":"Visconde Barreiros"},{"id":2401453392,"lat":41.2331788,"lon":-8.6294656,"name":"Jardim Zoológico"},{"id":2401458701,"lat":41.2336468,"lon":-8.6295273,"name":"Jardim Zoológico"},{"id":2401468473,"lat":41.2359624,"lon":-8.6302153,"name":"Maia (Zoo)"},{"id":2401526867,"lat":41.2345051,"lon":-8.630277,"name":"Maia (Igreja)"},{"id":2401529992,"lat":41.23379,"lon":-8.62412,"name":"Maia (Fórum)"},{"id":2401534563,"lat":41.2339534,"lon":-8.6239134,"name":"Maia (Fórum)"},{"id":2401539805,"lat":41.2339312,"lon":-8.6205017,"name":"Sobreiro"},{"id":2401540493,"lat":41.2338687,"lon":-8.62033,"name":"Sobreiro"},{"id":2401545016,"lat":41.2332504,"lon":-8.6188736,"name":"Luís de Camões"},{"id":2401547292,"lat":41.2328682,"lon":-8.6187287,"name":"Luís de Camões"},{"id":2401549922,"lat":41.231899,"lon":-8.6246779,"name":"Viso"},{"id":2401567813,"lat":41.2184861,"lon":-8.614055,"name":"António Aleixo"},{"id":2401567815,"lat":41.2184578,"lon":-8.6141441,"name":"António Aleixo"},{"id":2401579921,"lat":41.2159792,"lon":-8.6142038,"name":"Senhora da Saúde"},{"id":2401579922,"lat":41.2159398,"lon":-8.6143225,"name":"Senhora da Saúde"},{"id":2401586251,"lat":41.2125339,"lon":-8.6133047,"name":"Santana"},{"id":2401588345,"lat":41.2123398,"lon":-8.6133348,"name":"Santana"},{"id":2401592061,"lat":41.2102574,"lon":-8.6133482,"name":"Travessa da Feira"},{"id":2401592435,"lat":41.2087585,"lon":-8.6134463,"name":"Camilo Castelo Branco"},{"id":2401593778,"lat":41.2079258,"lon":-8.6137814,"name":"Paulo Ranito"},{"id":2401597398,"lat":41.2067039,"lon":-8.6141234,"name":"Pedro Mesquita"},{"id":2401597967,"lat":41.2056586,"lon":-8.6148221,"name":"Pedro Mesquita"},{"id":2401599272,"lat":41.2038958,"lon":-8.614345,"name":"Ponte da Pedra"},{"id":2401599943,"lat":41.2035852,"lon":-8.6144935,"name":"Ponte da Pedra"},{"id":2401610977,"lat":41.2002876,"lon":-8.6117831,"name":"Abel Salazar"},{"id":2401613850,"lat":41.2002463,"lon":-8.6119282,"name":"Abel Salazar"},{"id":2401615498,"lat":41.1981797,"lon":-8.6109141,"name":"Centro de Saúde São Mamede"},{"id":2401615998,"lat":41.1974531,"lon":-8.6110286,"name":"Centro de Saúde São Mamede"},{"id":2401617783,"lat":41.1963441,"lon":-8.6108752,"name":"Sá e Melo"},{"id":2401621416,"lat":41.1952128,"lon":-8.611189,"name":"Sá e Melo"},{"id":2401623092,"lat":41.1938889,"lon":-8.6112661,"name":"São Mamede"},{"id":2408920887,"lat":41.2032161,"lon":-8.5716099,"name":"Coriscos"},{"id":2428237831,"lat":41.2457321,"lon":-8.647851,"name":"Padrão de Moreira"},{"id":2428237832,"lat":41.2456796,"lon":-8.6477947,"name":"Padrão de Moreira"},{"id":2433505211,"lat":41.15011,"lon":-8.5906331,"name":"Piscinas de Campanhã"},{"id":2449521767,"lat":41.2029214,"lon":-8.6395776},{"id":2449524237,"lat":41.205119,"lon":-8.6432469,"name":"Cal"},{"id":2449524240,"lat":41.2051705,"lon":-8.6432187,"name":"Cal"},{"id":2665293222,"lat":41.1162264,"lon":-8.6343318,"name":"Gândara"},{"id":2665293227,"lat":41.1224077,"lon":-8.6326018,"name":"L. Domingos Matos"},{"id":2665293229,"lat":41.1242142,"lon":-8.6314203,"name":"Coimbrões"},{"id":2701149418,"lat":41.1242353,"lon":-8.6315238,"name":"Coimbrões"},{"id":2701150044,"lat":41.1235093,"lon":-8.6337805,"name":"Augusto Gomes"},{"id":2701152564,"lat":41.1271872,"lon":-8.6292306,"name":"B.V. Coimbrões"},{"id":2701155804,"lat":41.1251973,"lon":-8.6316228,"name":"Lavouras"},{"id":2701176623,"lat":41.1350015,"lon":-8.6304188,"name":"Largo Montinho"},{"id":2897246671,"lat":41.1888012,"lon":-8.5972557,"name":"Cavadas"},{"id":2897246672,"lat":41.1890515,"lon":-8.5988919,"name":"ISCAP"},{"id":2897246673,"lat":41.1893785,"lon":-8.6016009,"name":"Dr. Barros"},{"id":2897246675,"lat":41.1905573,"lon":-8.6061017,"name":"Moalde"},{"id":2897246676,"lat":41.1927282,"lon":-8.6079825,"name":"São Mamede"},{"id":2897246678,"lat":41.1975043,"lon":-8.6053345,"name":"E. S. Abel Salazar"},{"id":2897246683,"lat":41.2076655,"lon":-8.6074964,"name":"Azenha Nova"},{"id":2897246684,"lat":41.2095499,"lon":-8.605077,"name":"Malmequeres"},{"id":2897246685,"lat":41.2114129,"lon":-8.6041732,"name":"Mouta"},{"id":2897246686,"lat":41.2136985,"lon":-8.6015151,"name":"Arco"},{"id":2897246687,"lat":41.2144781,"lon":-8.6000967,"name":"EB23 Gueifães"},{"id":2897246688,"lat":41.2169792,"lon":-8.5995356,"name":"Flores"},{"id":2897246689,"lat":41.218109,"lon":-8.6028374,"name":"Gueifães"},{"id":2897246690,"lat":41.2193398,"lon":-8.6046452,"name":"Padre Américo"},{"id":2897246691,"lat":41.2209336,"lon":-8.6077244,"name":"Sá e Melo"},{"id":2897246692,"lat":41.2235966,"lon":-8.6081535,"name":"Henrique Barros"},{"id":2897246694,"lat":41.2260094,"lon":-8.6157348,"name":"Rotunda do Lavrador"},{"id":2897279972,"lat":41.2302316,"lon":-8.6192797,"name":"Lage"},{"id":2897279973,"lat":41.2327308,"lon":-8.6251896,"name":"Visconde Barreiros"},{"id":2897279974,"lat":41.2380195,"lon":-8.6308437,"name":"Quinta Andorinhas"},{"id":2897279975,"lat":41.2393426,"lon":-8.6334508,"name":"C. Costa Aroso"},{"id":2897279976,"lat":41.2412869,"lon":-8.6374258,"name":"Godim"},{"id":2897279977,"lat":41.2457899,"lon":-8.6387832,"name":"Guarda"},{"id":2897279978,"lat":41.2478615,"lon":-8.6428117,"name":"Châncidro"},{"id":2897279979,"lat":41.2467039,"lon":-8.6459123,"name":"Primavera"},{"id":2897279980,"lat":41.2444654,"lon":-8.6485302,"name":"Real"},{"id":2897279981,"lat":41.2385933,"lon":-8.6482378,"name":"Quinta de Moreira"},{"id":2897279982,"lat":41.2354226,"lon":-8.6498042,"name":"Crestins (Sta. Luzia)"},{"id":2897279983,"lat":41.2334378,"lon":-8.6526635,"name":"Sendal"},{"id":2897279984,"lat":41.231576,"lon":-8.6557695,"name":"Crestins (Metro)"},{"id":2897279985,"lat":41.2325926,"lon":-8.6607315,"name":"R. da Estrada"},{"id":2897279986,"lat":41.2327217,"lon":-8.6651196,"name":"Zona Industrial"},{"id":3009286891,"lat":41.1239678,"lon":-8.6303797,"name":"Coimbrões 1"},{"id":3009302667,"lat":41.1301219,"lon":-8.6313829,"name":"Major Pála"},{"id":3016459808,"lat":41.2142579,"lon":-8.6003693,"name":"EB23 Gueifães"},{"id":3016459811,"lat":41.2165924,"lon":-8.5996773,"name":"Flores"},{"id":3020596916,"lat":41.1051174,"lon":-8.6429631,"name":"José Poças"},{"id":3020596917,"lat":41.10606,"lon":-8.641099,"name":"Cabine"},{"id":3020596918,"lat":41.1061917,"lon":-8.6415055,"name":"Cabine"},{"id":3020596919,"lat":41.1059578,"lon":-8.6408865,"name":"Cabine"},{"id":3020596920,"lat":41.1059611,"lon":-8.6407969,"name":"Cabine"},{"id":3031929993,"lat":41.1052476,"lon":-8.6436875,"name":"José Poças"},{"id":3097513432,"lat":41.3537407,"lon":-8.4494445},{"id":3128225999,"lat":41.2302832,"lon":-8.6194673,"name":"Lage"},{"id":3139742947,"lat":41.1146998,"lon":-8.5106898,"name":"Jovim Escola"},{"id":3160862552,"lat":41.2018799,"lon":-8.5731892,"name":"Casa do Corim"},{"id":3160908073,"lat":41.2003827,"lon":-8.5746932,"name":"Corim"},{"id":3160908074,"lat":41.1977994,"lon":-8.5760289,"name":"Brás Oleiro"},{"id":3160908075,"lat":41.1964385,"lon":-8.5764711,"name":"São Gemil"},{"id":3160908076,"lat":41.1946501,"lon":-8.5777277,"name":"Forno"},{"id":3160908077,"lat":41.1923989,"lon":-8.5797648,"name":"Crespo"},{"id":3160908078,"lat":41.1907263,"lon":-8.5803752,"name":"Giesta"},{"id":3160908079,"lat":41.1884632,"lon":-8.5806902,"name":"Triana"},{"id":3160908080,"lat":41.1860351,"lon":-8.581226,"name":"Areosa (Feira)"},{"id":3160908081,"lat":41.1823518,"lon":-8.582905,"name":"Areosa (Mercado)"},{"id":3348352874,"lat":41.1149198,"lon":-8.5065749,"name":"Trás da Serra"},{"id":3348352875,"lat":41.1157133,"lon":-8.5089843,"name":"Talho S.ta. Cruz"},{"id":3379292639,"lat":41.2787709,"lon":-8.6718699,"name":"Lameira"},{"id":3385636906,"lat":41.2807912,"lon":-8.6605397},{"id":3398245285,"lat":41.1443743,"lon":-8.5767057},{"id":3398245286,"lat":41.1441542,"lon":-8.5767084,"name":"Freixo Museu Imprensa"},{"id":3398245287,"lat":41.1458185,"lon":-8.5795944,"name":"Freixo Rotunda"},{"id":3398245288,"lat":41.145358,"lon":-8.5796561,"name":"EDP"},{"id":3398245289,"lat":41.1495079,"lon":-8.5884739},{"id":3398245291,"lat":41.1505992,"lon":-8.5944056},{"id":3398246693,"lat":41.1492783,"lon":-8.5985952,"name":"Campo 24 de Agosto 1"},{"id":3398246700,"lat":41.1472152,"lon":-8.5880354,"name":"Capela Senhora da Saúde"},{"id":3497904800,"lat":41.1811217,"lon":-8.5849035,"name":"Areosa"},{"id":3609189045,"lat":41.2039588,"lon":-8.3249553},{"id":3718718019,"lat":41.2051213,"lon":-8.55575},{"id":3765173438,"lat":41.1618166,"lon":-8.6033693},{"id":3775862335,"lat":41.1812758,"lon":-8.648331,"name":"Bairro do Viso"},{"id":3779827394,"lat":41.1218447,"lon":-8.6611294,"name":"Campismo"},{"id":3779827404,"lat":41.1226355,"lon":-8.657952,"name":"Travessa de Salgueiros"},{"id":3780852959,"lat":41.1464745,"lon":-8.5958047,"name":"Ferreira Cardoso"},{"id":3781522158,"lat":41.1277823,"lon":-8.3678877},{"id":3781522159,"lat":41.129439,"lon":-8.3619412},{"id":3872699719,"lat":41.3423378,"lon":-8.7334232},{"id":3950247959,"lat":41.1933894,"lon":-8.6099792,"name":"São Mamede"},{"id":3950967590,"lat":41.1485595,"lon":-8.5987548},{"id":3982569213,"lat":41.1233716,"lon":-8.6094182,"name":"D. Pedro V"},{"id":3982569215,"lat":41.1221266,"lon":-8.6125497,"name":"Soares dos Reis"},{"id":3992140422,"lat":41.228707,"lon":-8.6183151,"name":"Vasco da Gama"},{"id":4095443057,"lat":41.2838979,"lon":-8.652915,"name":"Arões"},{"id":4134752291,"lat":41.222587,"lon":-8.6386853,"name":"Pontelhas"},{"id":4134752293,"lat":41.2002189,"lon":-8.6092016,"name":"Abel Salazar"},{"id":4134752395,"lat":41.2266012,"lon":-8.6401943,"name":"Manso"},{"id":4134752396,"lat":41.2297511,"lon":-8.6422795,"name":"Monte Grande"},{"id":4134752397,"lat":41.236412,"lon":-8.6471107,"name":"Rio Leça"},{"id":4134752590,"lat":41.2139018,"lon":-8.6347268,"name":"Gondivai (Norte)"},{"id":4134752591,"lat":41.2166324,"lon":-8.635602,"name":"R. Estação Araújo"},{"id":4134752592,"lat":41.2348244,"lon":-8.6435285,"name":"Sta. Luzia"},{"id":4134752689,"lat":41.2193835,"lon":-8.637051,"name":"Araújo"},{"id":4134752690,"lat":41.2354742,"lon":-8.6452954,"name":"Ponte de Moreira"},{"id":4134752693,"lat":41.1552731,"lon":-8.6117229,"name":"Pr. da República"},{"id":4134752694,"lat":41.1568023,"lon":-8.6123295,"name":"Lapa"},{"id":4134752789,"lat":41.2245071,"lon":-8.6393349,"name":"Custió"},{"id":4134752989,"lat":41.1604138,"lon":-8.6115828,"name":"Hospital Santa Maria"},{"id":4134752990,"lat":41.2207199,"lon":-8.6141294,"name":"Catassol"},{"id":4134752991,"lat":41.2251734,"lon":-8.6155882,"name":"Rotunda do Lavrador"},{"id":4134753089,"lat":41.2232278,"lon":-8.6151375,"name":"Combonianos"},{"id":4222564997,"lat":41.2627737,"lon":-8.7173596,"name":"Padre Ramos"},{"id":4222617007,"lat":41.2671121,"lon":-8.7205019},{"id":4357433761,"lat":41.3514615,"lon":-8.7484149},{"id":4359274276,"lat":41.3383361,"lon":-8.7282426},{"id":4359274277,"lat":41.3384761,"lon":-8.7282473},{"id":4364548414,"lat":41.2075705,"lon":-8.3328807},{"id":4364657182,"lat":41.207413,"lon":-8.2783351},{"id":4368011918,"lat":41.1594562,"lon":-8.6286405,"name":"Boavista (Casa da Música)"},{"id":4389094397,"lat":41.2037683,"lon":-8.3320875},{"id":4389094398,"lat":41.2038295,"lon":-8.3320167},{"id":4396499313,"lat":41.3604609,"lon":-8.7271363},{"id":4410307379,"lat":41.2029761,"lon":-8.329304},{"id":4410307380,"lat":41.202895,"lon":-8.3293225},{"id":4420645169,"lat":41.19267,"lon":-8.5809785},{"id":4464000738,"lat":41.1672619,"lon":-8.6513367,"name":"São João de Brito"},{"id":4468025143,"lat":41.1483933,"lon":-8.6316758,"name":"Salgueiro Maia"},{"id":4468114301,"lat":41.1455214,"lon":-8.6109455,"name":"Estação de São Bento"},{"id":4468114302,"lat":41.1456688,"lon":-8.6109321,"name":"Estação de São Bento"},{"id":4504815630,"lat":41.225084,"lon":-8.6157734,"name":"Rotunda do Lavrador"},{"id":4572090363,"lat":41.2468201,"lon":-8.612056,"name":"Junta de Freguesia de Barca"},{"id":4572156513,"lat":41.24693,"lon":-8.6074864,"name":"Barca"},{"id":4572169827,"lat":41.2468157,"lon":-8.6072844,"name":"Barca"},{"id":4572178203,"lat":41.2462295,"lon":-8.6096041,"name":"Gestalinho"},{"id":4612914675,"lat":41.1436825,"lon":-8.6040776,"name":"Batalha"},{"id":4625351062,"lat":41.2680376,"lon":-8.6113618},{"id":4652927447,"lat":41.2375992,"lon":-8.6249683,"name":"Ferreira da Cruz"},{"id":4652927448,"lat":41.239357,"lon":-8.6214808,"name":"Altino Coelho"},{"id":4652927449,"lat":41.2422696,"lon":-8.6210022,"name":"Pinta"},{"id":4652927450,"lat":41.2455683,"lon":-8.618635,"name":"Aquilino Ribeiro"},{"id":4652927451,"lat":41.2473013,"lon":-8.6170616,"name":"Hipermercado"},{"id":4652927452,"lat":41.2470157,"lon":-8.6148947,"name":"Padre Abílio Sampaio"},{"id":4764558156,"lat":41.1250548,"lon":-8.6123672,"name":"Barrosa"},{"id":4764558157,"lat":41.1254602,"lon":-8.6149369,"name":"Tv. Conselheiro Veloso da Cruz"},{"id":4764558158,"lat":41.1242936,"lon":-8.6163289,"name":"Praceta Alferes Pereira"},{"id":4764558159,"lat":41.1225631,"lon":-8.6144962,"name":"Visconde Devesas"},{"id":4764558169,"lat":41.126704,"lon":-8.624816,"name":"Arco do Prado"},{"id":4764558170,"lat":41.1289647,"lon":-8.6268034,"name":"Cemitério de Santa Marinha"},{"id":4764558171,"lat":41.1356831,"lon":-8.6324029,"name":"Alexandre Herculano"},{"id":4786922306,"lat":41.1275836,"lon":-8.5898557,"name":"Caxito"},{"id":4786922307,"lat":41.1273478,"lon":-8.5889034,"name":"Caxito"},{"id":4799928860,"lat":41.1229655,"lon":-8.6115676},{"id":4809659746,"lat":41.1376511,"lon":-8.6013962,"name":"Escarpa Serra Pilar"},{"id":4809659747,"lat":41.1375901,"lon":-8.6011753,"name":"Escarpa Serra Pilar"},{"id":4816687433,"lat":41.124956,"lon":-8.6004642},{"id":4820904590,"lat":41.111407,"lon":-8.6026998},{"id":4820905501,"lat":41.1125365,"lon":-8.6005186,"name":"RTP"},{"id":4820905502,"lat":41.1123903,"lon":-8.6001365,"name":"RTP"},{"id":4821121711,"lat":41.1148837,"lon":-8.6045099,"name":"Clube Caçadores"},{"id":4821121712,"lat":41.1149279,"lon":-8.604459,"name":"Clube Caçadores"},{"id":4822777654,"lat":41.1059793,"lon":-8.6023374},{"id":4822777655,"lat":41.1056772,"lon":-8.6024244},{"id":5200047021,"lat":41.1999113,"lon":-8.3456211},{"id":5261787621,"lat":41.1354133,"lon":-8.608127,"name":"Jardim do Morro"},{"id":5301937138,"lat":41.1291869,"lon":-8.6205214,"name":"Devesas"},{"id":5368746607,"lat":41.1138959,"lon":-8.4814813,"name":"Tv. Juncal"},{"id":5368746608,"lat":41.1139346,"lon":-8.4794078,"name":"Agra"},{"id":5368746609,"lat":41.115134,"lon":-8.4770297,"name":"Rampa"},{"id":5368746610,"lat":41.1149616,"lon":-8.4749099,"name":"Além do Rio"},{"id":5368746611,"lat":41.1135481,"lon":-8.4744301,"name":"Midões"},{"id":5368753318,"lat":41.1138473,"lon":-8.4793766,"name":"Agra"},{"id":5368753319,"lat":41.1150537,"lon":-8.4770484,"name":"Rampa"},{"id":5368753320,"lat":41.1148739,"lon":-8.4751334,"name":"Além do Rio"},{"id":5368753721,"lat":41.1135957,"lon":-8.4744932,"name":"Midões"},{"id":5368753722,"lat":41.113845,"lon":-8.4816589,"name":"Tv. Juncal"},{"id":5378992800,"lat":41.096737,"lon":-8.5992152},{"id":5378992801,"lat":41.097624,"lon":-8.5993351},{"id":5378992806,"lat":41.0956785,"lon":-8.59869},{"id":5378992813,"lat":41.0938608,"lon":-8.597184},{"id":5378992814,"lat":41.0925751,"lon":-8.5951685},{"id":5378995629,"lat":41.0897788,"lon":-8.5921667},{"id":5379199619,"lat":41.0865487,"lon":-8.5887841},{"id":5379199721,"lat":41.084506,"lon":-8.5855012},{"id":5379199722,"lat":41.0832889,"lon":-8.5844887},{"id":5380244149,"lat":41.0663998,"lon":-8.5752629},{"id":5380244188,"lat":41.0626868,"lon":-8.5933688},{"id":5380244189,"lat":41.0627586,"lon":-8.593763},{"id":5380244205,"lat":41.0616352,"lon":-8.6003465},{"id":5380244206,"lat":41.0615158,"lon":-8.6002138},{"id":5380244220,"lat":41.0588159,"lon":-8.6045428},{"id":5380247121,"lat":41.0587491,"lon":-8.604406},{"id":5380247146,"lat":41.050227,"lon":-8.6153631},{"id":5380247154,"lat":41.0474666,"lon":-8.6180097},{"id":5382781762,"lat":41.1788915,"lon":-8.5600303},{"id":5586227837,"lat":-23.5487441,"lon":-47.7607664},{"id":5586227841,"lat":-23.5489359,"lon":-47.7606135},{"id":5590149229,"lat":41.2974621,"lon":-8.5985886},{"id":5590149230,"lat":41.2972811,"lon":-8.5987197},{"id":5725421202,"lat":41.2732093,"lon":-8.4683868},{"id":5725421203,"lat":41.2736899,"lon":-8.4690548,"name":"Reguenga (Cruzamento)"},{"id":5725421204,"lat":41.273705,"lon":-8.4691997,"name":"Reguenga (Cruzamento)"},{"id":5725532633,"lat":41.2747984,"lon":-8.4585738},{"id":5725532634,"lat":41.2747457,"lon":-8.4636397},{"id":5725532635,"lat":41.2744689,"lon":-8.4537546},{"id":5725532636,"lat":41.2776713,"lon":-8.4509693},{"id":5790974553,"lat":41.0955023,"lon":-8.6310684,"name":"Campolinho"},{"id":5808289570,"lat":41.2027525,"lon":-8.3184263},{"id":5879724602,"lat":41.1933912,"lon":-8.6099629,"name":"São Mamede"},{"id":5879724603,"lat":41.1933909,"lon":-8.6099725,"name":"São Mamede"},{"id":5879724604,"lat":41.1932414,"lon":-8.6092499,"name":"São Mamede"},{"id":5879724606,"lat":41.1963282,"lon":-8.6051701},{"id":5879724607,"lat":41.1973597,"lon":-8.6054994,"name":"E. S. Abel Salazar"},{"id":5879724608,"lat":41.1973219,"lon":-8.6055229,"name":"E. S. Abel Salazar"},{"id":5879724609,"lat":41.1974591,"lon":-8.6053601,"name":"E. S. Abel Salazar"},{"id":5879724610,"lat":41.198455,"lon":-8.6054412},{"id":5879724611,"lat":41.1983449,"lon":-8.6053386},{"id":5879724612,"lat":41.201328,"lon":-8.6058951},{"id":5879724616,"lat":41.2016706,"lon":-8.6040909},{"id":5955098878,"lat":41.3778198,"lon":-8.2100575},{"id":5969225141,"lat":41.3603157,"lon":-8.7487829,"name":"Escola José Régio"},{"id":5972774785,"lat":41.1572799,"lon":-8.5942043,"name":"Escola Soares dos Reis"},{"id":6047589115,"lat":41.2505733,"lon":-8.5834725},{"id":6047589117,"lat":41.2453345,"lon":-8.5860541},{"id":6050569312,"lat":41.3352618,"lon":-8.5291155},{"id":6051002157,"lat":41.3354481,"lon":-8.529658},{"id":6058954049,"lat":41.2557274,"lon":-8.5826384},{"id":6058954052,"lat":41.2419831,"lon":-8.5866201},{"id":6059030149,"lat":41.3384559,"lon":-8.5253638},{"id":6093089934,"lat":41.1900948,"lon":-8.4357854},{"id":6143667226,"lat":41.2456709,"lon":-8.5131143,"name":"Codiceira"},{"id":6143667227,"lat":41.2450919,"lon":-8.5153245,"name":"Vasco da Gama"},{"id":6143667228,"lat":41.2450556,"lon":-8.5151341,"name":"Vasco da Gama"},{"id":6143667229,"lat":41.2446446,"lon":-8.5197742,"name":"Largo da Codiceira"},{"id":6143667230,"lat":41.2444738,"lon":-8.5198852,"name":"Largo da Codiceira"},{"id":6143667231,"lat":41.2425702,"lon":-8.5237845,"name":"Alexandre Herculano"},{"id":6143667233,"lat":41.2410429,"lon":-8.5266831,"name":"Alfena"},{"id":6143667235,"lat":41.2386743,"lon":-8.5316622,"name":"Fonte"},{"id":6143667237,"lat":41.2362559,"lon":-8.5365787,"name":"Afonso Henriques"},{"id":6143667239,"lat":41.2340553,"lon":-8.5348111,"name":"Rua Funda"},{"id":6143667241,"lat":41.2407246,"lon":-8.5255517,"name":"Alfena"},{"id":6143667242,"lat":41.2403635,"lon":-8.5254605,"name":"Alfena"},{"id":6143667243,"lat":41.23836,"lon":-8.5257896,"name":"Travessa da Costa"},{"id":6143667244,"lat":41.2387105,"lon":-8.5256538,"name":"Travessa da Costa"},{"id":6143667245,"lat":41.2366662,"lon":-8.52602,"name":"Igreja de Alfena"},{"id":6143667246,"lat":41.2366732,"lon":-8.5258532,"name":"Igreja de Alfena"},{"id":6143667247,"lat":41.233051,"lon":-8.5260552,"name":"Barreira"},{"id":6143667248,"lat":41.2331151,"lon":-8.5259236,"name":"Barreira"},{"id":6143667249,"lat":41.229409,"lon":-8.5279456,"name":"Aldeia Nova"},{"id":6143667250,"lat":41.2295665,"lon":-8.5277138,"name":"Aldeia Nova"},{"id":6143667251,"lat":41.2275622,"lon":-8.5294264,"name":"Oliveiras"},{"id":6143667252,"lat":41.2277183,"lon":-8.5291799,"name":"Oliveiras"},{"id":6143667253,"lat":41.2258505,"lon":-8.5308071,"name":"Viela S. Vicente"},{"id":6143667254,"lat":41.2260317,"lon":-8.5305105,"name":"Viela S. Vicente"},{"id":6173050138,"lat":41.2486574,"lon":-7.9540697},{"id":6213955197,"lat":41.1596688,"lon":-8.51777,"name":"Alto da Serra"},{"id":6213955198,"lat":41.1599209,"lon":-8.5178319,"name":"Alto da Serra"},{"id":6213955199,"lat":41.1591581,"lon":-8.5222661,"name":"Barreiros"},{"id":6213955200,"lat":41.159032,"lon":-8.5222098,"name":"Barreiros"},{"id":6213955201,"lat":41.1594712,"lon":-8.5252543,"name":"Estivada"},{"id":6213955202,"lat":41.1601457,"lon":-8.5255635,"name":"Estivada"},{"id":6213955203,"lat":41.1599711,"lon":-8.5290854,"name":"Sta. Eulália"},{"id":6216481977,"lat":41.1385021,"lon":-8.6098955,"name":"Ponte Luíz I"},{"id":6431818698,"lat":41.3612398,"lon":-8.4004106},{"id":6431818699,"lat":41.3628537,"lon":-8.4000688},{"id":6431818700,"lat":41.3625558,"lon":-8.3990577},{"id":6481840138,"lat":41.2468344,"lon":-8.7230307},{"id":6481886591,"lat":41.250161,"lon":-8.7021718},{"id":6768555979,"lat":41.2594792,"lon":-8.6144767},{"id":6781592118,"lat":41.2067037,"lon":-8.6235627,"name":"Largo da Capela"},{"id":6781592119,"lat":41.2067055,"lon":-8.6233292,"name":"Largo da capela"},{"id":6783918055,"lat":41.2374112,"lon":-8.416168},{"id":6783918056,"lat":41.2373108,"lon":-8.4166731},{"id":6799993763,"lat":41.2362575,"lon":-8.4204803},{"id":6799993764,"lat":41.2362185,"lon":-8.4204183},{"id":6799993765,"lat":41.2355372,"lon":-8.4233133},{"id":6799993766,"lat":41.2354108,"lon":-8.4232877},{"id":6799993767,"lat":41.2286891,"lon":-8.4249443},{"id":6799993768,"lat":41.2286427,"lon":-8.4248022},{"id":6799993769,"lat":41.2275687,"lon":-8.4414284},{"id":6799993770,"lat":41.2277765,"lon":-8.4414526},{"id":6799993771,"lat":41.2382434,"lon":-8.4155367},{"id":6799993773,"lat":41.2401157,"lon":-8.4145864},{"id":6799993774,"lat":41.2417617,"lon":-8.410534},{"id":6799993775,"lat":41.2419268,"lon":-8.4100319},{"id":6821401713,"lat":41.1827892,"lon":-8.6531496,"name":"Sete Bicas"},{"id":6846029489,"lat":41.2269702,"lon":-8.5527657,"name":"Travagem"},{"id":6846029490,"lat":41.2243635,"lon":-8.5557223,"name":"Rio Leça"},{"id":6846102367,"lat":41.2083295,"lon":-8.5664874,"name":"Júlio Dinis"},{"id":6846102368,"lat":41.2086554,"lon":-8.5670534,"name":"Júlio Dinis"},{"id":6846102369,"lat":41.210758,"lon":-8.5655956,"name":"Meilão"},{"id":6846102370,"lat":41.2111434,"lon":-8.5654628,"name":"Meilão"},{"id":6846102372,"lat":41.2133387,"lon":-8.5631602,"name":"Mirante"},{"id":6846102373,"lat":41.2133841,"lon":-8.5627243,"name":"Mirante"},{"id":6846102374,"lat":41.2153998,"lon":-8.5597189,"name":"Gandra"},{"id":6846102375,"lat":41.2156086,"lon":-8.5593957,"name":"Gandra"},{"id":6846102376,"lat":41.2173095,"lon":-8.5588089,"name":"Camélias"},{"id":6846102377,"lat":41.2172031,"lon":-8.5587184,"name":"Camélias"},{"id":6846102378,"lat":41.2192867,"lon":-8.558703,"name":"Maiashopping"},{"id":6846102379,"lat":41.2194587,"lon":-8.5588076,"name":"Maiashopping"},{"id":6846102380,"lat":41.2278678,"lon":-8.5535907,"name":"Simões Lopes"},{"id":6846102381,"lat":41.2247,"lon":-8.5550901,"name":"Rio Leça"},{"id":6846102382,"lat":41.2219639,"lon":-8.5573907,"name":"Rodrigues de Freitas"},{"id":6846102383,"lat":41.2220229,"lon":-8.5574947,"name":"Rodrigues de Freitas"},{"id":6846206829,"lat":41.1956197,"lon":-8.4959306,"name":"Pereiras"},{"id":6846206830,"lat":41.1956883,"lon":-8.4959118,"name":"Pereiras"},{"id":6846206831,"lat":41.1972384,"lon":-8.4948108,"name":"Julião Sarmento"},{"id":6846206832,"lat":41.1971062,"lon":-8.4946686,"name":"Julião Sarmento"},{"id":6846206833,"lat":41.1971193,"lon":-8.4898071,"name":"Valongo (Continente)"},{"id":6846206834,"lat":41.1823957,"lon":-8.4640344,"name":"Campo"},{"id":6846206835,"lat":41.2133902,"lon":-8.5542096,"name":"Cruzeiro"},{"id":6846206836,"lat":41.2132666,"lon":-8.5543531,"name":"Cruzeiro"},{"id":6849002446,"lat":41.2178815,"lon":-8.5471661,"name":"5 de Outubro"},{"id":6849002447,"lat":41.2178343,"lon":-8.547089,"name":"5 de Outubro"},{"id":6849002448,"lat":41.2193765,"lon":-8.5533245,"name":"Ermesinde (Igreja)"},{"id":6849002449,"lat":41.2187864,"lon":-8.5528269,"name":"Ermesinde (Igreja)"},{"id":6849002450,"lat":41.2172631,"lon":-8.5508569,"name":"Ermesinde - B.V."},{"id":6849002451,"lat":41.2169726,"lon":-8.5513906,"name":"Ermesinde - B.V."},{"id":6852329572,"lat":41.1882526,"lon":-8.4892693,"name":"Presa"},{"id":6852329573,"lat":41.190758,"lon":-8.492205,"name":"Fonte Mourisca"},{"id":6852329574,"lat":41.1908378,"lon":-8.4921607,"name":"Fonte Mourisca"},{"id":6852329575,"lat":41.1936075,"lon":-8.492606,"name":"Emídio Navarro"},{"id":6852329576,"lat":41.1937033,"lon":-8.492551,"name":"Emídio Navarro"},{"id":6852329577,"lat":41.2201315,"lon":-8.5580495,"name":"Rua da Igreja"},{"id":6852329578,"lat":41.220351,"lon":-8.5581364,"name":"Rua da Igreja"},{"id":6852493205,"lat":41.191908,"lon":-8.503076,"name":"25 de Abril"},{"id":6852493206,"lat":41.191684,"lon":-8.5035145,"name":"25 de Abril"},{"id":6852493207,"lat":41.1930363,"lon":-8.5019991,"name":"Rot. 1º de Maio"},{"id":6852493208,"lat":41.1957146,"lon":-8.5008484,"name":"Pav. Gimnodesport."},{"id":6852493209,"lat":41.1933269,"lon":-8.4994483,"name":"Calvário"},{"id":6852493210,"lat":41.1882405,"lon":-8.4929976,"name":"Padrão"},{"id":6852493211,"lat":41.1880488,"lon":-8.4927133,"name":"Padrão"},{"id":6853095962,"lat":41.23876,"lon":-8.70009,"name":"Vilar do Senhor"},{"id":6853095963,"lat":41.2413142,"lon":-8.6999453,"name":"José Domingues Santos"},{"id":6853095964,"lat":41.2434685,"lon":-8.7001289,"name":"Gândara"},{"id":6853095965,"lat":41.2461927,"lon":-8.7008038,"name":"Barreiro"},{"id":6853095966,"lat":41.2482955,"lon":-8.7008082,"name":"Escola EB1 Cabanelas"},{"id":6853095967,"lat":41.2501139,"lon":-8.7023736,"name":"Escola EB23 José Domingues Santos"},{"id":6853095968,"lat":41.251965,"lon":-8.7049967,"name":"Centro Saúde Cabanelas"},{"id":6853095969,"lat":41.2533025,"lon":-8.7067505,"name":"R. da Cruz"},{"id":6853095970,"lat":41.2544723,"lon":-8.7095747,"name":"Brévia"},{"id":6853095971,"lat":41.25601,"lon":-8.7112789,"name":"Castanheiros"},{"id":6853095972,"lat":41.2574277,"lon":-8.7148062,"name":"Antela"},{"id":6853095973,"lat":41.2595089,"lon":-8.717527,"name":"Junta Freguesia Lavra"},{"id":6853095974,"lat":41.2663282,"lon":-8.7161249,"name":"Clínica Angeiras"},{"id":6853095975,"lat":41.266998,"lon":-8.7203561,"name":"Parque Campismo Angeiras"},{"id":6853095976,"lat":41.2658156,"lon":-8.7237651,"name":"Nossa Senhora de Fátima"},{"id":6853095977,"lat":41.26451,"lon":-8.7260591,"name":"Angeiras (Mercado)"},{"id":6853095978,"lat":41.2609579,"lon":-8.7242041,"name":"Bairro dos Pescadores"},{"id":6853095979,"lat":41.2571656,"lon":-8.7231083,"name":"Praia do Funtão"},{"id":6853095980,"lat":41.2490299,"lon":-8.7189398,"name":"Padre Amaro"},{"id":6853095981,"lat":41.2463364,"lon":-8.7197839,"name":"Padre M. Teixeira de Melo"},{"id":6853095982,"lat":41.2417975,"lon":-8.7225395,"name":"Agudela 2"},{"id":6853095983,"lat":41.1477784,"lon":-8.6224776,"name":"Hosp. St. António"},{"id":6853095984,"lat":41.14719,"lon":-8.616933,"name":"Carmo"},{"id":6875613031,"lat":41.1549789,"lon":-8.6091445,"name":"João Regras"},{"id":6875613032,"lat":41.1570813,"lon":-8.6090569,"name":"Paraíso (Metro)"},{"id":6875613033,"lat":41.1593813,"lon":-8.6081086,"name":"Hosp. Sta. Maria"},{"id":6875613034,"lat":41.1633588,"lon":-8.6020848,"name":"Perpétuo Socorro"},{"id":6875613035,"lat":41.1646597,"lon":-8.6003472,"name":"Combatentes"},{"id":6875613036,"lat":41.1661279,"lon":-8.5971009,"name":"PLIM1"},{"id":6875613037,"lat":41.1674641,"lon":-8.5931105,"name":"Silva Tapada"},{"id":6875613038,"lat":41.1684966,"lon":-8.591181,"name":"Luis Woodhouse"},{"id":6875613040,"lat":41.1696047,"lon":-8.5894155,"name":"Conde Ferreira"},{"id":6875613042,"lat":41.1752452,"lon":-8.5861181,"name":"Santa Justa"},{"id":6875613043,"lat":41.1774381,"lon":-8.5848819,"name":"António Coelho"},{"id":6875613044,"lat":41.1788015,"lon":-8.5839945,"name":"Alto da Areosa"},{"id":6875613045,"lat":41.1802709,"lon":-8.5834713,"name":"Areosa"},{"id":6875613047,"lat":41.188687,"lon":-8.5805419,"name":"Triana"},{"id":6875613048,"lat":41.1910527,"lon":-8.5801483,"name":"Giesta"},{"id":6875613049,"lat":41.1926282,"lon":-8.5795145,"name":"Crespo"},{"id":6875613050,"lat":41.1943758,"lon":-8.5778172,"name":"Forno"},{"id":6875613051,"lat":41.1971524,"lon":-8.5760328,"name":"Brás Oleiro"},{"id":6875613052,"lat":41.2006187,"lon":-8.5743647,"name":"Corim"},{"id":6875613053,"lat":41.2094969,"lon":-8.5648819,"name":"Consolata"},{"id":6875613054,"lat":41.210443,"lon":-8.5624319,"name":"Calouste Gulbenkian"},{"id":6875613055,"lat":41.2110906,"lon":-8.5604701,"name":"Saibreiras"},{"id":6875613056,"lat":41.2109491,"lon":-8.5570756,"name":"Porto Carreiro"},{"id":6875613057,"lat":41.2166286,"lon":-8.5417762,"name":"Sonhos"},{"id":6875613058,"lat":41.2165176,"lon":-8.5415402,"name":"Sonhos"},{"id":6875613059,"lat":41.2192564,"lon":-8.5430679,"name":"Pinheiro"},{"id":6875613060,"lat":41.2192983,"lon":-8.5430216,"name":"Pinheiro"},{"id":6875613061,"lat":41.2158135,"lon":-8.5527863,"name":"Ermesinde (Forum)"},{"id":6876425590,"lat":41.1917247,"lon":-8.5135936,"name":"Ribeiro Cambado"},{"id":6876425598,"lat":41.2101888,"lon":-8.5382026,"name":"Chãos"},{"id":6876425599,"lat":41.2097398,"lon":-8.5421314,"name":"Formiga Cemitério"},{"id":6876425600,"lat":41.2093191,"lon":-8.5437219,"name":"Quinta Chãos"},{"id":6876425601,"lat":41.2112254,"lon":-8.5470855,"name":"Sá"},{"id":6876425602,"lat":41.2109174,"lon":-8.5470441,"name":"Sá"},{"id":6876425603,"lat":41.2136732,"lon":-8.5497208,"name":"Ribeiro Teles"},{"id":6876425604,"lat":41.2160759,"lon":-8.5512005,"name":"Vasco da Gama"},{"id":6876425605,"lat":41.2167218,"lon":-8.5536513,"name":"Ermesinde (Estação)"},{"id":6876425606,"lat":41.2110951,"lon":-8.5573418,"name":"Porto Carreiro"},{"id":6876425607,"lat":41.2109869,"lon":-8.560882,"name":"Saibreiras"},{"id":6876425608,"lat":41.2105508,"lon":-8.5624803,"name":"Calouste Gulbenkian"},{"id":6876425609,"lat":41.2095329,"lon":-8.5650012,"name":"Consolata"},{"id":6876468684,"lat":41.1816524,"lon":-8.5954209,"name":"Asprela"},{"id":6876474586,"lat":41.2052381,"lon":-8.5556856,"name":"Palmilheira"},{"id":6876634128,"lat":41.2383024,"lon":-8.5321741,"name":"Fonte"},{"id":6876634129,"lat":41.235757,"lon":-8.5365479,"name":"D. Afonso Henriques"},{"id":6876634130,"lat":41.2337393,"lon":-8.5349489,"name":"Rua Funda"},{"id":6876634131,"lat":41.2301319,"lon":-8.5384334,"name":"Passarias"},{"id":6876634132,"lat":41.231372,"lon":-8.5415475,"name":"Monforte"},{"id":6876634133,"lat":41.2322497,"lon":-8.5445307,"name":"Vilar"},{"id":6876634134,"lat":41.2297992,"lon":-8.5483901,"name":"Boavista"},{"id":6876634135,"lat":41.2262877,"lon":-8.5486412,"name":"Bela"},{"id":6876634136,"lat":41.225713,"lon":-8.5454304,"name":"Centro Saúde de Ermesinde"},{"id":6876634137,"lat":41.2229684,"lon":-8.5474881,"name":"Marginal"},{"id":6876634138,"lat":41.2204105,"lon":-8.5462355,"name":"R. Nova da Fonte"},{"id":6876634139,"lat":41.1678582,"lon":-8.6206046,"name":"Bica Velha"},{"id":6876634142,"lat":41.1822183,"lon":-8.5964276,"name":"Asprela"},{"id":6876795602,"lat":41.2202825,"lon":-8.5455494,"name":"Fonte"},{"id":6876795603,"lat":41.2217933,"lon":-8.5437481,"name":"Soutinho"},{"id":6876795604,"lat":41.222209,"lon":-8.5407932,"name":"Ermida"},{"id":6876795605,"lat":41.2223039,"lon":-8.5380983,"name":"Reguengo"},{"id":6876795606,"lat":41.222247,"lon":-8.5351381,"name":"Senhora da Paz"},{"id":6876795607,"lat":41.223392,"lon":-8.5326253,"name":"Cabeda"},{"id":6879950137,"lat":41.1569107,"lon":-8.6130149,"name":"Lapa"},{"id":6879950138,"lat":41.1600318,"lon":-8.6118426,"name":"Hospital Santa Maria"},{"id":6888438163,"lat":41.1145116,"lon":-8.5124441,"name":"Jovim Pinheiro"},{"id":6894111791,"lat":41.1526064,"lon":-8.649448,"name":"Aleixo"},{"id":6919386947,"lat":41.1555898,"lon":-8.6046747,"name":"Fontinha"},{"id":6919386948,"lat":41.1582253,"lon":-8.6045738,"name":"Doze Casas"},{"id":6919386949,"lat":41.1624047,"lon":-8.6035016,"name":"Perpétuo Socorro"},{"id":6919386950,"lat":41.1646168,"lon":-8.6006217,"name":"Combatentes"},{"id":6919386951,"lat":41.1662328,"lon":-8.5971862,"name":"Pires de Lima"},{"id":6919386952,"lat":41.1675446,"lon":-8.5932187,"name":"Silva Tapada"},{"id":6919386953,"lat":41.1683006,"lon":-8.5917816,"name":"Luis Woodhouse"},{"id":6919386954,"lat":41.1698662,"lon":-8.5893101,"name":"Conde Ferreira"},{"id":6919386955,"lat":41.1718825,"lon":-8.5879808,"name":"Barrocas"},{"id":6919386956,"lat":41.1745026,"lon":-8.5865976,"name":"Santa Justa"},{"id":6919386957,"lat":41.1769692,"lon":-8.5853307,"name":"António Coelho"},{"id":6919386958,"lat":41.1788489,"lon":-8.584083,"name":"Alto da Areosa"},{"id":6919456045,"lat":41.2088915,"lon":-8.5700899,"name":"Lavadouros"},{"id":6919456046,"lat":41.2096737,"lon":-8.5750301,"name":"Corga"},{"id":6919456047,"lat":41.2100672,"lon":-8.5779371,"name":"Águas Santas"},{"id":6919456048,"lat":41.207995,"lon":-8.5806569,"name":"R. do Mosteiro"},{"id":6919456049,"lat":41.2064101,"lon":-8.5833529,"name":"António Santos"},{"id":6919456050,"lat":41.2052445,"lon":-8.5866831,"name":"Formigueiro"},{"id":6919456051,"lat":41.2054942,"lon":-8.5893345,"name":"Gago Coutinho"},{"id":6919456052,"lat":41.2017716,"lon":-8.5961808,"name":"Parada"},{"id":6919456053,"lat":41.1993041,"lon":-8.5996121,"name":"Leonardo Coimbra"},{"id":6919456054,"lat":41.1955243,"lon":-8.6013613,"name":"Tv. Henrique Bravo"},{"id":6919471571,"lat":41.2142215,"lon":-8.5498075,"name":"Ribeiro Teles"},{"id":6919471572,"lat":41.2164103,"lon":-8.55129,"name":"Vasco da Gama"},{"id":6919471573,"lat":41.2090715,"lon":-8.5704267,"name":"Lavadouros"},{"id":6919471574,"lat":41.2098635,"lon":-8.5751379,"name":"Corga"},{"id":6919471575,"lat":41.2101404,"lon":-8.5780609,"name":"Águas Santas"},{"id":6919471576,"lat":41.2087643,"lon":-8.5799711,"name":"R. do Mosteiro"},{"id":6919471577,"lat":41.2063283,"lon":-8.5835431,"name":"António Santos"},{"id":6919471578,"lat":41.2053765,"lon":-8.5866003,"name":"Formigueiro"},{"id":6919471579,"lat":41.2055239,"lon":-8.5888668,"name":"Gago Coutinho"},{"id":6919471580,"lat":41.2054641,"lon":-8.5915775,"name":"Rod. Goncalves Lage (Este)"},{"id":6919471581,"lat":41.2020758,"lon":-8.5955308,"name":"Parada"},{"id":6919471582,"lat":41.1991952,"lon":-8.599802,"name":"Leonardo Coimbra"},{"id":6919471583,"lat":41.1959148,"lon":-8.6011037,"name":"Tv. Henrique Bravo"},{"id":6919471584,"lat":41.1953737,"lon":-8.6048691,"name":"Laranjeiras"},{"id":6919471785,"lat":41.1906013,"lon":-8.6063678,"name":"Moalde"},{"id":6919471786,"lat":41.1875701,"lon":-8.6042112,"name":"Oliveira Gaio"},{"id":6919471787,"lat":41.1861693,"lon":-8.6035113,"name":"Dr. Barros"},{"id":6923762251,"lat":41.15106,"lon":-8.6108083,"name":"Trindade"},{"id":6923762252,"lat":41.1536517,"lon":-8.6064711,"name":"JORNAL DE NOTÍCIAS"},{"id":6923762253,"lat":41.1806401,"lon":-8.5834739,"name":"Areosa"},{"id":6923802338,"lat":41.1458864,"lon":-8.583717,"name":"Noeda"},{"id":6923802339,"lat":41.1455648,"lon":-8.5797592,"name":"EDP"},{"id":6923802340,"lat":41.14654,"lon":-8.5796294,"name":"Freixo"},{"id":6923802341,"lat":41.1519769,"lon":-8.5747033,"name":"Bonjoia"},{"id":6923802342,"lat":41.1558673,"lon":-8.5714796,"name":"Lagarteiro"},{"id":6923802343,"lat":41.1573338,"lon":-8.5704474,"name":"Br. Cerco Porto"},{"id":6923802344,"lat":41.1592679,"lon":-8.5667024,"name":"Pego Negro"},{"id":6923802345,"lat":41.1649357,"lon":-8.5660192,"name":"Bernardim Ribeiro"},{"id":6923802346,"lat":41.1693083,"lon":-8.570694,"name":"Fabrica do Cobre"},{"id":6923802347,"lat":41.1725531,"lon":-8.5674626,"name":"Vila Cova"},{"id":6923802348,"lat":41.1746267,"lon":-8.5674421,"name":"Parque Nascente"},{"id":6923802349,"lat":41.176893,"lon":-8.5674794,"name":"Ranha"},{"id":6923802350,"lat":41.1799191,"lon":-8.5720162,"name":"Rebordãos"},{"id":6923802351,"lat":41.1808306,"lon":-8.5769548,"name":"Varziela"},{"id":6936332708,"lat":41.169274,"lon":-8.5842746,"name":"Bonfim Barreiros"},{"id":6936332709,"lat":41.1558383,"lon":-8.6373148,"name":"Guerra Junqueiro"},{"id":6936332710,"lat":41.1018922,"lon":-8.647691,"name":"CARVALHEIRO"},{"id":6936332711,"lat":41.1515802,"lon":-8.5665381,"name":"Azevedo"},{"id":6936332712,"lat":41.0809272,"lon":-8.6523635,"name":"FRANCELOS"},{"id":6936332713,"lat":41.1097021,"lon":-8.6341413,"name":"GOMES JÚNIOR"},{"id":6936332714,"lat":41.1095749,"lon":-8.6343903,"name":"GOMES JÚNIOR"},{"id":6936332715,"lat":41.1313909,"lon":-8.6517408,"name":"CANCELINHAS"},{"id":6936332716,"lat":41.1538015,"lon":-8.5136755,"name":"BELO HORIZONTE"},{"id":6936332717,"lat":41.1843098,"lon":-8.4849534,"name":"ÁGUAS FERREAS"},{"id":6936332718,"lat":41.1948887,"lon":-8.689436,"name":"ASSOC. EMP. PORTUGAL"},{"id":6936332719,"lat":41.1837069,"lon":-8.4839713,"name":"ÁGUAS FERREAS"},{"id":6936332720,"lat":41.1541009,"lon":-8.5958095,"name":"BARROS LIMA"},{"id":6936332722,"lat":41.1856006,"lon":-8.4859838,"name":"AGUIAR NOGUEIRA"},{"id":6936332723,"lat":41.1895913,"lon":-8.5621484,"name":"CASAIS NOVOS"},{"id":6936332724,"lat":41.1894814,"lon":-8.5619537,"name":"CASAIS NOVOS"},{"id":6936332725,"lat":41.1542924,"lon":-8.5952152,"name":"BARROS LIMA"},{"id":6936332726,"lat":41.1494247,"lon":-8.6373284,"name":"FACULDADE ARQUITETURA"},{"id":6936332727,"lat":41.1749187,"lon":-8.6068605,"name":"DIONÍSIO SANTOS SILVA"},{"id":6936332728,"lat":41.1601297,"lon":-8.6100301,"name":"Hospital Santa Maria"},{"id":6936332729,"lat":41.143464,"lon":-8.5343078,"name":"COMBATENTES G.GUERRA"},{"id":6936332730,"lat":41.1258269,"lon":-8.618009,"name":"Devesas"},